[
  {
    "name": "Hawa Mahal",
    "city": "jaipur",
    "state": "rajasthan",
    "lat": 26.9239,
    "lng": 75.8267,
    "category": "monument",
    "subcategory": "palace",
    "rating": 4.5,
    "description": "The Palace of Winds is a stunning pink sandstone structure with 953 small windows designed to allow royal women to observe street life. Built in 1799 by Maharaja Sawai Pratap Singh.",
    "avg_cost": 50,
    "visit_duration": 1.5,
    "best_time": "morning",
    "tags": [
      "history",
      "architecture",
      "culture",
      "photography"
    ]
  },
  {
    "name": "Amber Fort",
    "city": "jaipur",
    "state": "rajasthan",
    "lat": 26.9855,
    "lng": 75.8513,
    "category": "monument",
    "subcategory": "fort",
    "rating": 4.7,
    "description": "A majestic fort palace built from red sandstone and marble, known for its artistic Hindu style elements. The fort overlooks Maota Lake and offers incredible views.",
    "avg_cost": 200,
    "visit_duration": 3.0,
    "best_time": "morning",
    "tags": [
      "history",
      "architecture",
      "adventure",
      "culture"
    ]
  },
  {
    "name": "City Palace Jaipur",
    "city": "jaipur",
    "state": "rajasthan",
    "lat": 26.9258,
    "lng": 75.8237,
    "category": "monument",
    "subcategory": "palace",
    "rating": 4.4,
    "description": "A magnificent blend of Rajasthani and Mughal architecture in the heart of the old city. Houses a museum with royal costumes, armory, and art.",
    "avg_cost": 300,
    "visit_duration": 2.5,
    "best_time": "morning",
    "tags": [
      "history",
      "culture",
      "art",
      "architecture"
    ]
  },
  {
    "name": "Jantar Mantar Jaipur",
    "city": "jaipur",
    "state": "rajasthan",
    "lat": 26.9248,
    "lng": 75.8246,
    "category": "monument",
    "subcategory": "observatory",
    "rating": 4.3,
    "description": "UNESCO World Heritage Site featuring the world's largest stone sundial. Built by Maharaja Jai Singh II to observe astronomical positions.",
    "avg_cost": 50,
    "visit_duration": 1.0,
    "best_time": "morning",
    "tags": [
      "history",
      "culture",
      "science"
    ]
  },
  {
    "name": "Nahargarh Fort",
    "city": "jaipur",
    "state": "rajasthan",
    "lat": 26.9372,
    "lng": 75.8154,
    "category": "monument",
    "subcategory": "fort",
    "rating": 4.4,
    "description": "Perched on the Aravalli Hills, this fort offers panoramic views of Jaipur city. The sunset view from here is spectacular.",
    "avg_cost": 100,
    "visit_duration": 2.0,
    "best_time": "evening",
    "tags": [
      "history",
      "adventure",
      "nature",
      "photography"
    ]
  },
  {
    "name": "Jal Mahal",
    "city": "jaipur",
    "state": "rajasthan",
    "lat": 26.953,
    "lng": 75.8462,
    "category": "monument",
    "subcategory": "palace",
    "rating": 4.2,
    "description": "A beautiful palace sitting in the middle of Man Sagar Lake. While you cannot enter, the views from the shore are mesmerizing, especially at sunset.",
    "avg_cost": 0,
    "visit_duration": 0.5,
    "best_time": "evening",
    "tags": [
      "nature",
      "photography",
      "culture"
    ]
  },
  {
    "name": "Albert Hall Museum",
    "city": "jaipur",
    "state": "rajasthan",
    "lat": 26.9117,
    "lng": 75.8158,
    "category": "museum",
    "subcategory": "museum",
    "rating": 4.3,
    "description": "The oldest museum of Rajasthan, housing a rich collection of paintings, carpets, ivory, metal sculptures, and crystal works.",
    "avg_cost": 40,
    "visit_duration": 1.5,
    "best_time": "morning",
    "tags": [
      "history",
      "culture",
      "art"
    ]
  },
  {
    "name": "Birla Mandir Jaipur",
    "city": "jaipur",
    "state": "rajasthan",
    "lat": 26.8926,
    "lng": 75.8137,
    "category": "religious",
    "subcategory": "temple",
    "rating": 4.5,
    "description": "A stunning white marble Hindu temple dedicated to Lord Vishnu. The temple is beautifully illuminated at night.",
    "avg_cost": 0,
    "visit_duration": 1.0,
    "best_time": "evening",
    "tags": [
      "spiritual",
      "architecture",
      "culture"
    ]
  },
  {
    "name": "Jaigarh Fort",
    "city": "jaipur",
    "state": "rajasthan",
    "lat": 26.9862,
    "lng": 75.8432,
    "category": "monument",
    "subcategory": "fort",
    "rating": 4.3,
    "description": "Known as the 'Fort of Victory', houses the world's largest cannon on wheels - Jaivana. Connected to Amber Fort via underground passages.",
    "avg_cost": 100,
    "visit_duration": 2.0,
    "best_time": "morning",
    "tags": [
      "history",
      "adventure",
      "culture"
    ]
  },
  {
    "name": "Chokhi Dhani",
    "city": "jaipur",
    "state": "rajasthan",
    "lat": 26.7663,
    "lng": 75.841,
    "category": "restaurant",
    "subcategory": "restaurant",
    "rating": 4.4,
    "description": "An ethnic village resort offering authentic Rajasthani thali, folk dances, puppet shows, and camel rides. A complete cultural dining experience.",
    "avg_cost": 800,
    "visit_duration": 3.0,
    "best_time": "evening",
    "tags": [
      "food",
      "culture",
      "entertainment"
    ]
  },
  {
    "name": "LMB (Laxmi Mishthan Bhandar)",
    "city": "jaipur",
    "state": "rajasthan",
    "lat": 26.9196,
    "lng": 75.8233,
    "category": "restaurant",
    "subcategory": "restaurant",
    "rating": 4.2,
    "description": "Iconic vegetarian restaurant since 1727 famous for its Rajasthani thali, dal baati churma, and ghevar sweets.",
    "avg_cost": 400,
    "visit_duration": 1.0,
    "best_time": "afternoon",
    "tags": [
      "food",
      "culture"
    ]
  },
  {
    "name": "Bapu Bazaar",
    "city": "jaipur",
    "state": "rajasthan",
    "lat": 26.916,
    "lng": 75.8208,
    "category": "entertainment",
    "subcategory": "market",
    "rating": 4.1,
    "description": "A bustling market famous for textiles, bangles, mojari shoes, and handicrafts. Perfect for souvenir shopping.",
    "avg_cost": 0,
    "visit_duration": 2.0,
    "best_time": "afternoon",
    "tags": [
      "shopping",
      "culture"
    ]
  },
  {
    "name": "Johri Bazaar",
    "city": "jaipur",
    "state": "rajasthan",
    "lat": 26.9225,
    "lng": 75.8243,
    "category": "entertainment",
    "subcategory": "market",
    "rating": 4.0,
    "description": "One of the oldest and most famous jewelry markets in India. Known for kundan, meenakari jewelry, and precious gemstones.",
    "avg_cost": 0,
    "visit_duration": 1.5,
    "best_time": "afternoon",
    "tags": [
      "shopping",
      "culture"
    ]
  },
  {
    "name": "Central Park Jaipur",
    "city": "jaipur",
    "state": "rajasthan",
    "lat": 26.9054,
    "lng": 75.8029,
    "category": "park",
    "subcategory": "park",
    "rating": 4.1,
    "description": "A vast green space in the heart of the city with jogging tracks, a musical fountain, and India's tallest national flag.",
    "avg_cost": 0,
    "visit_duration": 1.0,
    "best_time": "morning",
    "tags": [
      "nature",
      "sports"
    ]
  },
  {
    "name": "Gateway of India",
    "city": "mumbai",
    "state": "maharashtra",
    "lat": 18.922,
    "lng": 72.8347,
    "category": "monument",
    "subcategory": "arch",
    "rating": 4.5,
    "description": "An iconic arch monument built in the Indo-Saracenic style overlooking the Arabian Sea. Built to commemorate the visit of King George V in 1911.",
    "avg_cost": 0,
    "visit_duration": 1.0,
    "best_time": "evening",
    "tags": [
      "history",
      "culture",
      "photography"
    ]
  },
  {
    "name": "Marine Drive",
    "city": "mumbai",
    "state": "maharashtra",
    "lat": 18.9432,
    "lng": 72.8235,
    "category": "nature",
    "subcategory": "promenade",
    "rating": 4.6,
    "description": "A 3.6 km long boulevard along the coastline known as the Queen's Necklace for its nighttime lighting. Perfect for evening walks.",
    "avg_cost": 0,
    "visit_duration": 1.5,
    "best_time": "evening",
    "tags": [
      "nature",
      "photography",
      "nightlife"
    ]
  },
  {
    "name": "Chhatrapati Shivaji Terminus",
    "city": "mumbai",
    "state": "maharashtra",
    "lat": 18.9398,
    "lng": 72.8355,
    "category": "architecture",
    "subcategory": "station",
    "rating": 4.5,
    "description": "UNESCO World Heritage Site. A historic Victorian Gothic railway station with stunning stained glass windows and ornate stone carvings.",
    "avg_cost": 0,
    "visit_duration": 0.5,
    "best_time": "morning",
    "tags": [
      "history",
      "architecture",
      "culture"
    ]
  },
  {
    "name": "Elephanta Caves",
    "city": "mumbai",
    "state": "maharashtra",
    "lat": 18.9633,
    "lng": 72.9315,
    "category": "historic",
    "subcategory": "caves",
    "rating": 4.4,
    "description": "UNESCO World Heritage Site with rock-cut cave temples dating back to 5th-8th centuries. Features magnificent sculptures of Lord Shiva.",
    "avg_cost": 40,
    "visit_duration": 4.0,
    "best_time": "morning",
    "tags": [
      "history",
      "culture",
      "spiritual",
      "adventure"
    ]
  },
  {
    "name": "Siddhivinayak Temple",
    "city": "mumbai",
    "state": "maharashtra",
    "lat": 19.0169,
    "lng": 72.831,
    "category": "religious",
    "subcategory": "temple",
    "rating": 4.6,
    "description": "One of the most visited Hindu temples in Mumbai dedicated to Lord Ganesha. The temple dome is gold-plated and is considered very auspicious.",
    "avg_cost": 0,
    "visit_duration": 1.0,
    "best_time": "morning",
    "tags": [
      "spiritual",
      "culture"
    ]
  },
  {
    "name": "Juhu Beach",
    "city": "mumbai",
    "state": "maharashtra",
    "lat": 19.0988,
    "lng": 72.8267,
    "category": "nature",
    "subcategory": "beach",
    "rating": 4.1,
    "description": "Mumbai's most famous beach known for street food stalls, Bollywood celebrity spotting, and beautiful sunsets over the Arabian Sea.",
    "avg_cost": 100,
    "visit_duration": 2.0,
    "best_time": "evening",
    "tags": [
      "nature",
      "food",
      "beaches",
      "entertainment"
    ]
  },
  {
    "name": "Haji Ali Dargah",
    "city": "mumbai",
    "state": "maharashtra",
    "lat": 18.9827,
    "lng": 72.8089,
    "category": "religious",
    "subcategory": "mosque",
    "rating": 4.5,
    "description": "An iconic mosque and tomb built on an islet 500 meters into the Arabian Sea, accessible only during low tide via a narrow causeway.",
    "avg_cost": 0,
    "visit_duration": 1.0,
    "best_time": "afternoon",
    "tags": [
      "spiritual",
      "culture",
      "architecture"
    ]
  },
  {
    "name": "Colaba Causeway",
    "city": "mumbai",
    "state": "maharashtra",
    "lat": 18.9167,
    "lng": 72.8327,
    "category": "entertainment",
    "subcategory": "market",
    "rating": 4.2,
    "description": "A vibrant street market selling everything from antiques to fashion accessories. Also has trendy cafes and bookstores.",
    "avg_cost": 0,
    "visit_duration": 2.0,
    "best_time": "afternoon",
    "tags": [
      "shopping",
      "food",
      "culture"
    ]
  },
  {
    "name": "Leopold Cafe",
    "city": "mumbai",
    "state": "maharashtra",
    "lat": 18.9219,
    "lng": 72.8318,
    "category": "restaurant",
    "subcategory": "cafe",
    "rating": 4.1,
    "description": "An iconic cafe since 1871 in Colaba, famous for its history and ambiance. Featured in the novel Shantaram.",
    "avg_cost": 600,
    "visit_duration": 1.0,
    "best_time": "evening",
    "tags": [
      "food",
      "culture",
      "nightlife"
    ]
  },
  {
    "name": "Bademiya",
    "city": "mumbai",
    "state": "maharashtra",
    "lat": 18.9223,
    "lng": 72.832,
    "category": "restaurant",
    "subcategory": "street_food",
    "rating": 4.3,
    "description": "Legendary street-side kebab stall near Colaba known for its seekh kebabs, chicken tikka rolls, and late-night dining culture.",
    "avg_cost": 300,
    "visit_duration": 0.5,
    "best_time": "evening",
    "tags": [
      "food",
      "nightlife"
    ]
  },
  {
    "name": "Sanjay Gandhi National Park",
    "city": "mumbai",
    "state": "maharashtra",
    "lat": 19.2147,
    "lng": 72.9106,
    "category": "nature",
    "subcategory": "national_park",
    "rating": 4.3,
    "description": "A sprawling national park within the city featuring the Kanheri Caves, hiking trails, a lion safari, and rich biodiversity.",
    "avg_cost": 50,
    "visit_duration": 4.0,
    "best_time": "morning",
    "tags": [
      "nature",
      "adventure",
      "history"
    ]
  },
  {
    "name": "Chhatrapati Shivaji Maharaj Vastu Sangrahalaya",
    "city": "mumbai",
    "state": "maharashtra",
    "lat": 18.9268,
    "lng": 72.8326,
    "category": "museum",
    "subcategory": "museum",
    "rating": 4.4,
    "description": "Premier museum of Mumbai housing artifacts from the Indus Valley Civilization, Indian miniature paintings, and decorative art.",
    "avg_cost": 100,
    "visit_duration": 2.0,
    "best_time": "morning",
    "tags": [
      "history",
      "culture",
      "art"
    ]
  },
  {
    "name": "Taj Mahal",
    "city": "agra",
    "state": "uttar pradesh",
    "lat": 27.1751,
    "lng": 78.0421,
    "category": "monument",
    "subcategory": "mausoleum",
    "rating": 4.9,
    "description": "One of the Seven Wonders of the World. An ivory-white marble mausoleum built by Mughal Emperor Shah Jahan in memory of his wife Mumtaz Mahal.",
    "avg_cost": 50,
    "visit_duration": 3.0,
    "best_time": "morning",
    "tags": [
      "history",
      "architecture",
      "culture",
      "photography"
    ]
  },
  {
    "name": "Agra Fort",
    "city": "agra",
    "state": "uttar pradesh",
    "lat": 27.1795,
    "lng": 78.0211,
    "category": "monument",
    "subcategory": "fort",
    "rating": 4.6,
    "description": "UNESCO World Heritage Site. A massive red sandstone fort that served as the main residence of Mughal emperors until 1638.",
    "avg_cost": 50,
    "visit_duration": 2.5,
    "best_time": "morning",
    "tags": [
      "history",
      "architecture",
      "culture"
    ]
  },
  {
    "name": "Fatehpur Sikri",
    "city": "agra",
    "state": "uttar pradesh",
    "lat": 27.0945,
    "lng": 77.6679,
    "category": "historic",
    "subcategory": "city_ruins",
    "rating": 4.5,
    "description": "A deserted Mughal city built by Emperor Akbar. Home to the beautiful Buland Darwaza, the highest gateway in the world.",
    "avg_cost": 50,
    "visit_duration": 3.0,
    "best_time": "morning",
    "tags": [
      "history",
      "architecture",
      "culture",
      "spiritual"
    ]
  },
  {
    "name": "Mehtab Bagh",
    "city": "agra",
    "state": "uttar pradesh",
    "lat": 27.1768,
    "lng": 78.0376,
    "category": "park",
    "subcategory": "garden",
    "rating": 4.3,
    "description": "A Mughal garden across the Yamuna offering the most spectacular sunset views of the Taj Mahal.",
    "avg_cost": 30,
    "visit_duration": 1.5,
    "best_time": "evening",
    "tags": [
      "nature",
      "photography",
      "history"
    ]
  },
  {
    "name": "Itmad-ud-Daulah",
    "city": "agra",
    "state": "uttar pradesh",
    "lat": 27.1924,
    "lng": 78.031,
    "category": "monument",
    "subcategory": "tomb",
    "rating": 4.2,
    "description": "Often called the Baby Taj, this marble tomb is considered a draft of the Taj Mahal. Features beautiful pietra dura inlay work.",
    "avg_cost": 30,
    "visit_duration": 1.0,
    "best_time": "morning",
    "tags": [
      "history",
      "architecture",
      "culture"
    ]
  },
  {
    "name": "Pinch of Spice Agra",
    "city": "agra",
    "state": "uttar pradesh",
    "lat": 27.1832,
    "lng": 78.018,
    "category": "restaurant",
    "subcategory": "restaurant",
    "rating": 4.3,
    "description": "Popular multi-cuisine restaurant known for its North Indian food, especially the butter chicken, dal makhani, and kebabs.",
    "avg_cost": 500,
    "visit_duration": 1.0,
    "best_time": "afternoon",
    "tags": [
      "food"
    ]
  },
  {
    "name": "India Gate",
    "city": "delhi",
    "state": "delhi",
    "lat": 28.6129,
    "lng": 77.2295,
    "category": "monument",
    "subcategory": "memorial",
    "rating": 4.5,
    "description": "A war memorial dedicated to Indian soldiers who died in World War I. The surrounding lawns are popular for evening picnics.",
    "avg_cost": 0,
    "visit_duration": 1.0,
    "best_time": "evening",
    "tags": [
      "history",
      "culture",
      "photography"
    ]
  },
  {
    "name": "Red Fort",
    "city": "delhi",
    "state": "delhi",
    "lat": 28.6562,
    "lng": 77.241,
    "category": "monument",
    "subcategory": "fort",
    "rating": 4.5,
    "description": "UNESCO World Heritage Site. A massive red sandstone fort built by Mughal Emperor Shah Jahan. The PM hoists the flag here on Independence Day.",
    "avg_cost": 35,
    "visit_duration": 2.5,
    "best_time": "morning",
    "tags": [
      "history",
      "architecture",
      "culture"
    ]
  },
  {
    "name": "Qutub Minar",
    "city": "delhi",
    "state": "delhi",
    "lat": 28.5245,
    "lng": 77.1855,
    "category": "monument",
    "subcategory": "tower",
    "rating": 4.5,
    "description": "UNESCO World Heritage Site. The tallest brick minaret in the world at 72.5 meters, built in 1193 by Qutb-ud-din Aibak.",
    "avg_cost": 35,
    "visit_duration": 1.5,
    "best_time": "morning",
    "tags": [
      "history",
      "architecture",
      "culture"
    ]
  },
  {
    "name": "Humayun's Tomb",
    "city": "delhi",
    "state": "delhi",
    "lat": 28.5933,
    "lng": 77.2507,
    "category": "monument",
    "subcategory": "tomb",
    "rating": 4.6,
    "description": "UNESCO World Heritage Site. The first garden tomb in the Indian subcontinent, which inspired the Taj Mahal.",
    "avg_cost": 35,
    "visit_duration": 1.5,
    "best_time": "morning",
    "tags": [
      "history",
      "architecture",
      "culture",
      "photography"
    ]
  },
  {
    "name": "Lotus Temple",
    "city": "delhi",
    "state": "delhi",
    "lat": 28.5535,
    "lng": 77.2588,
    "category": "religious",
    "subcategory": "temple",
    "rating": 4.5,
    "description": "A Bahá'í House of Worship shaped like a lotus flower, made of white marble. Open to all faiths for meditation and prayer.",
    "avg_cost": 0,
    "visit_duration": 1.0,
    "best_time": "afternoon",
    "tags": [
      "spiritual",
      "architecture",
      "culture"
    ]
  },
  {
    "name": "Akshardham Temple",
    "city": "delhi",
    "state": "delhi",
    "lat": 28.6127,
    "lng": 77.2773,
    "category": "religious",
    "subcategory": "temple",
    "rating": 4.7,
    "description": "A massive Hindu temple complex showcasing 10,000 years of Indian culture through exhibitions, boat rides, and musical fountains.",
    "avg_cost": 0,
    "visit_duration": 3.0,
    "best_time": "afternoon",
    "tags": [
      "spiritual",
      "culture",
      "architecture",
      "entertainment"
    ]
  },
  {
    "name": "Chandni Chowk",
    "city": "delhi",
    "state": "delhi",
    "lat": 28.6506,
    "lng": 77.2303,
    "category": "entertainment",
    "subcategory": "market",
    "rating": 4.3,
    "description": "One of the oldest and busiest markets in Old Delhi. Famous for spices, dry fruits, fabrics, jewelry, and legendary street food.",
    "avg_cost": 0,
    "visit_duration": 3.0,
    "best_time": "morning",
    "tags": [
      "shopping",
      "food",
      "culture"
    ]
  },
  {
    "name": "Karim's",
    "city": "delhi",
    "state": "delhi",
    "lat": 28.6505,
    "lng": 77.2337,
    "category": "restaurant",
    "subcategory": "restaurant",
    "rating": 4.4,
    "description": "A legendary Mughlai restaurant near Jama Masjid since 1913. Known for nihari, mutton burra, and biryani.",
    "avg_cost": 400,
    "visit_duration": 1.0,
    "best_time": "afternoon",
    "tags": [
      "food",
      "culture"
    ]
  },
  {
    "name": "Paranthe Wali Gali",
    "city": "delhi",
    "state": "delhi",
    "lat": 28.651,
    "lng": 77.2302,
    "category": "restaurant",
    "subcategory": "street_food",
    "rating": 4.2,
    "description": "A narrow lane in Chandni Chowk famous for its deep-fried stuffed paranthas served since the 1870s with various chutneys.",
    "avg_cost": 150,
    "visit_duration": 0.5,
    "best_time": "morning",
    "tags": [
      "food",
      "culture"
    ]
  },
  {
    "name": "Lodhi Garden",
    "city": "delhi",
    "state": "delhi",
    "lat": 28.5931,
    "lng": 77.2197,
    "category": "park",
    "subcategory": "garden",
    "rating": 4.4,
    "description": "A beautiful park spread over 90 acres containing tombs of the Sayyid and Lodhi dynasties. Popular for morning walks and jogging.",
    "avg_cost": 0,
    "visit_duration": 1.5,
    "best_time": "morning",
    "tags": [
      "nature",
      "history",
      "sports"
    ]
  },
  {
    "name": "National Museum Delhi",
    "city": "delhi",
    "state": "delhi",
    "lat": 28.6117,
    "lng": 77.2196,
    "category": "museum",
    "subcategory": "museum",
    "rating": 4.2,
    "description": "India's largest museum with over 200,000 works of art spanning 5,000 years. Includes Harappan artifacts and Buddhist sculptures.",
    "avg_cost": 20,
    "visit_duration": 2.0,
    "best_time": "morning",
    "tags": [
      "history",
      "culture",
      "art"
    ]
  },
  {
    "name": "Calangute Beach",
    "city": "goa",
    "state": "goa",
    "lat": 15.5439,
    "lng": 73.7553,
    "category": "nature",
    "subcategory": "beach",
    "rating": 4.3,
    "description": "The Queen of Beaches in Goa. A long stretch of golden sand popular for water sports, sunbathing, and beach shacks.",
    "avg_cost": 0,
    "visit_duration": 3.0,
    "best_time": "morning",
    "tags": [
      "beaches",
      "adventure",
      "nature",
      "nightlife"
    ]
  },
  {
    "name": "Baga Beach",
    "city": "goa",
    "state": "goa",
    "lat": 15.5554,
    "lng": 73.7514,
    "category": "nature",
    "subcategory": "beach",
    "rating": 4.4,
    "description": "A popular beach known for its energetic nightlife, water sports like parasailing and jet skiing, and famous beach clubs.",
    "avg_cost": 200,
    "visit_duration": 3.0,
    "best_time": "evening",
    "tags": [
      "beaches",
      "nightlife",
      "adventure",
      "food"
    ]
  },
  {
    "name": "Basilica of Bom Jesus",
    "city": "goa",
    "state": "goa",
    "lat": 15.5009,
    "lng": 73.9116,
    "category": "religious",
    "subcategory": "church",
    "rating": 4.6,
    "description": "UNESCO World Heritage Site housing the mortal remains of St. Francis Xavier. A masterpiece of Baroque architecture from 1605.",
    "avg_cost": 0,
    "visit_duration": 1.0,
    "best_time": "morning",
    "tags": [
      "spiritual",
      "history",
      "architecture"
    ]
  },
  {
    "name": "Fort Aguada",
    "city": "goa",
    "state": "goa",
    "lat": 15.4925,
    "lng": 73.7738,
    "category": "monument",
    "subcategory": "fort",
    "rating": 4.3,
    "description": "A well-preserved 17th century Portuguese fort overlooking the Arabian Sea with a four-storey lighthouse.",
    "avg_cost": 0,
    "visit_duration": 1.5,
    "best_time": "evening",
    "tags": [
      "history",
      "photography",
      "adventure"
    ]
  },
  {
    "name": "Dudhsagar Falls",
    "city": "goa",
    "state": "goa",
    "lat": 15.3144,
    "lng": 74.3143,
    "category": "nature",
    "subcategory": "waterfall",
    "rating": 4.5,
    "description": "One of India's tallest waterfalls at 310 meters, set amidst lush forest in the Western Ghats. Accessible via a scenic trek or jeep ride.",
    "avg_cost": 500,
    "visit_duration": 5.0,
    "best_time": "morning",
    "tags": [
      "nature",
      "adventure"
    ]
  },
  {
    "name": "Anjuna Flea Market",
    "city": "goa",
    "state": "goa",
    "lat": 15.5726,
    "lng": 73.741,
    "category": "entertainment",
    "subcategory": "market",
    "rating": 4.0,
    "description": "A vibrant Wednesday flea market selling jewelry, clothes, spices, and souvenirs. A quintessential Goa experience.",
    "avg_cost": 0,
    "visit_duration": 2.0,
    "best_time": "afternoon",
    "tags": [
      "shopping",
      "culture"
    ]
  },
  {
    "name": "Thalassa",
    "city": "goa",
    "state": "goa",
    "lat": 15.6011,
    "lng": 73.7378,
    "category": "restaurant",
    "subcategory": "restaurant",
    "rating": 4.5,
    "description": "A Greek restaurant perched on a cliff offering stunning sunset views over the Arabian Sea. Known for its Mediterranean cuisine.",
    "avg_cost": 1200,
    "visit_duration": 1.5,
    "best_time": "evening",
    "tags": [
      "food",
      "photography"
    ]
  },
  {
    "name": "Gunpowder Goa",
    "city": "goa",
    "state": "goa",
    "lat": 15.3952,
    "lng": 73.939,
    "category": "restaurant",
    "subcategory": "restaurant",
    "rating": 4.3,
    "description": "A charming restaurant serving South Indian and Kerala cuisine in a countryside setting. Known for its appam, stew, and fish curry.",
    "avg_cost": 700,
    "visit_duration": 1.0,
    "best_time": "afternoon",
    "tags": [
      "food"
    ]
  },
  {
    "name": "Palolem Beach",
    "city": "goa",
    "state": "goa",
    "lat": 15.01,
    "lng": 74.0232,
    "category": "nature",
    "subcategory": "beach",
    "rating": 4.5,
    "description": "A crescent-shaped beach in South Goa known for its calm waters, kayaking, and silent discos. More relaxed than North Goa beaches.",
    "avg_cost": 0,
    "visit_duration": 3.0,
    "best_time": "morning",
    "tags": [
      "beaches",
      "nature",
      "adventure"
    ]
  },
  {
    "name": "Ghats of Varanasi",
    "city": "varanasi",
    "state": "uttar pradesh",
    "lat": 25.3109,
    "lng": 83.0107,
    "category": "religious",
    "subcategory": "ghat",
    "rating": 4.7,
    "description": "Over 80 ghats along the Ganges river. The Ganga Aarti at Dashashwamedh Ghat at sunset is a mesmerizing spiritual experience.",
    "avg_cost": 0,
    "visit_duration": 2.0,
    "best_time": "evening",
    "tags": [
      "spiritual",
      "culture",
      "photography"
    ]
  },
  {
    "name": "Kashi Vishwanath Temple",
    "city": "varanasi",
    "state": "uttar pradesh",
    "lat": 25.3109,
    "lng": 83.0107,
    "category": "religious",
    "subcategory": "temple",
    "rating": 4.8,
    "description": "One of the most famous Hindu temples dedicated to Lord Shiva. The temple's spire is gold-plated with 800 kg of gold.",
    "avg_cost": 0,
    "visit_duration": 1.5,
    "best_time": "morning",
    "tags": [
      "spiritual",
      "culture",
      "history"
    ]
  },
  {
    "name": "Sarnath",
    "city": "varanasi",
    "state": "uttar pradesh",
    "lat": 25.3815,
    "lng": 83.0248,
    "category": "historic",
    "subcategory": "ruins",
    "rating": 4.5,
    "description": "The place where Buddha gave his first sermon. Features the Dhamek Stupa, Ashoka Pillar, and an archaeological museum.",
    "avg_cost": 20,
    "visit_duration": 2.5,
    "best_time": "morning",
    "tags": [
      "spiritual",
      "history",
      "culture"
    ]
  },
  {
    "name": "Boat Ride on Ganges",
    "city": "varanasi",
    "state": "uttar pradesh",
    "lat": 25.3109,
    "lng": 83.014,
    "category": "entertainment",
    "subcategory": "activity",
    "rating": 4.6,
    "description": "A sunrise boat ride on the holy Ganges offering views of the ghats, temples, and the morning rituals of the city.",
    "avg_cost": 200,
    "visit_duration": 1.5,
    "best_time": "morning",
    "tags": [
      "spiritual",
      "nature",
      "culture",
      "photography"
    ]
  },
  {
    "name": "Ramnagar Fort",
    "city": "varanasi",
    "state": "uttar pradesh",
    "lat": 25.2867,
    "lng": 83.0287,
    "category": "monument",
    "subcategory": "fort",
    "rating": 4.0,
    "description": "An 18th century sandstone fort on the eastern bank of the Ganges. Houses a museum with vintage cars, weapons, and ivory work.",
    "avg_cost": 20,
    "visit_duration": 1.5,
    "best_time": "afternoon",
    "tags": [
      "history",
      "culture"
    ]
  },
  {
    "name": "Blue Lassi Shop",
    "city": "varanasi",
    "state": "uttar pradesh",
    "lat": 25.312,
    "lng": 83.01,
    "category": "restaurant",
    "subcategory": "cafe",
    "rating": 4.5,
    "description": "A legendary lassi shop serving over 70 flavors of thick, creamy lassi in terracotta cups since 1925.",
    "avg_cost": 80,
    "visit_duration": 0.5,
    "best_time": "afternoon",
    "tags": [
      "food",
      "culture"
    ]
  },
  {
    "name": "Kachori Gali",
    "city": "varanasi",
    "state": "uttar pradesh",
    "lat": 25.311,
    "lng": 83.0105,
    "category": "restaurant",
    "subcategory": "street_food",
    "rating": 4.3,
    "description": "A famous lane for hot kachori, jalebi, and chaat. The freshly fried kachori with sabzi is a must-try breakfast.",
    "avg_cost": 100,
    "visit_duration": 0.5,
    "best_time": "morning",
    "tags": [
      "food",
      "culture"
    ]
  },
  {
    "name": "Mysore Palace",
    "city": "mysore",
    "state": "karnataka",
    "lat": 12.3052,
    "lng": 76.6552,
    "category": "monument",
    "subcategory": "palace",
    "rating": 4.7,
    "description": "The seat of the Wodeyar dynasty. A grand Indo-Saracenic palace illuminated by 97,000 lights on Sundays and public holidays.",
    "avg_cost": 70,
    "visit_duration": 2.0,
    "best_time": "morning",
    "tags": [
      "history",
      "architecture",
      "culture"
    ]
  },
  {
    "name": "Chamundi Hills",
    "city": "mysore",
    "state": "karnataka",
    "lat": 12.2726,
    "lng": 76.67,
    "category": "religious",
    "subcategory": "temple",
    "rating": 4.4,
    "description": "A hilltop temple of Goddess Chamundeshwari with 1,000 steps leading to the top. Features a massive Nandi bull statue.",
    "avg_cost": 0,
    "visit_duration": 2.0,
    "best_time": "morning",
    "tags": [
      "spiritual",
      "nature",
      "adventure"
    ]
  },
  {
    "name": "Brindavan Gardens",
    "city": "mysore",
    "state": "karnataka",
    "lat": 12.4215,
    "lng": 76.573,
    "category": "park",
    "subcategory": "garden",
    "rating": 4.3,
    "description": "Terraced gardens built across the KRS Dam with musical fountains, illuminated in colorful lights in the evening.",
    "avg_cost": 30,
    "visit_duration": 2.0,
    "best_time": "evening",
    "tags": [
      "nature",
      "photography",
      "entertainment"
    ]
  },
  {
    "name": "Devaraja Market",
    "city": "mysore",
    "state": "karnataka",
    "lat": 12.3098,
    "lng": 76.6535,
    "category": "entertainment",
    "subcategory": "market",
    "rating": 4.0,
    "description": "A 100+ year old market bursting with colors. Famous for Mysore sandalwood, silk, spices, and fresh flowers.",
    "avg_cost": 0,
    "visit_duration": 1.5,
    "best_time": "morning",
    "tags": [
      "shopping",
      "culture"
    ]
  },
  {
    "name": "Mylari Dosa Hotel",
    "city": "mysore",
    "state": "karnataka",
    "lat": 12.307,
    "lng": 76.653,
    "category": "restaurant",
    "subcategory": "restaurant",
    "rating": 4.5,
    "description": "Iconic eatery famous for its signature butter-soaked spongy dosa. A must-visit for any food enthusiast visiting Mysore.",
    "avg_cost": 100,
    "visit_duration": 0.5,
    "best_time": "morning",
    "tags": [
      "food"
    ]
  },
  {
    "name": "Alleppey Backwaters",
    "city": "kochi",
    "state": "kerala",
    "lat": 9.4981,
    "lng": 76.3388,
    "category": "nature",
    "subcategory": "backwaters",
    "rating": 4.8,
    "description": "A network of canals, lagoons, and lakes best explored on a traditional houseboat. The Venice of the East.",
    "avg_cost": 5000,
    "visit_duration": 8.0,
    "best_time": "morning",
    "tags": [
      "nature",
      "culture",
      "photography",
      "adventure"
    ]
  },
  {
    "name": "Fort Kochi",
    "city": "kochi",
    "state": "kerala",
    "lat": 9.9639,
    "lng": 76.2425,
    "category": "historic",
    "subcategory": "neighborhood",
    "rating": 4.5,
    "description": "A historic seaside neighborhood with Portuguese, Dutch, and British colonial architecture, Chinese fishing nets, and art galleries.",
    "avg_cost": 0,
    "visit_duration": 3.0,
    "best_time": "morning",
    "tags": [
      "history",
      "culture",
      "architecture",
      "art"
    ]
  },
  {
    "name": "Chinese Fishing Nets",
    "city": "kochi",
    "state": "kerala",
    "lat": 9.9674,
    "lng": 76.2393,
    "category": "historic",
    "subcategory": "landmark",
    "rating": 4.3,
    "description": "Iconic cantilevered fishing nets introduced by Chinese traders in the 14th century. Best photographed at sunset.",
    "avg_cost": 0,
    "visit_duration": 0.5,
    "best_time": "evening",
    "tags": [
      "history",
      "photography",
      "culture"
    ]
  },
  {
    "name": "Mattancherry Palace",
    "city": "kochi",
    "state": "kerala",
    "lat": 9.9585,
    "lng": 76.2593,
    "category": "museum",
    "subcategory": "palace",
    "rating": 4.2,
    "description": "Also called the Dutch Palace. Known for stunning Kerala murals depicting scenes from the Ramayana and Mahabharata.",
    "avg_cost": 5,
    "visit_duration": 1.0,
    "best_time": "morning",
    "tags": [
      "history",
      "culture",
      "art"
    ]
  },
  {
    "name": "Jew Town & Synagogue",
    "city": "kochi",
    "state": "kerala",
    "lat": 9.9577,
    "lng": 76.2603,
    "category": "historic",
    "subcategory": "heritage",
    "rating": 4.3,
    "description": "Home to the Paradesi Synagogue (1568), the oldest active synagogue in the Commonwealth. The surrounding streets are lined with antique shops.",
    "avg_cost": 10,
    "visit_duration": 1.5,
    "best_time": "morning",
    "tags": [
      "history",
      "culture",
      "shopping"
    ]
  },
  {
    "name": "Kayees Rahmathulla Hotel",
    "city": "kochi",
    "state": "kerala",
    "lat": 9.968,
    "lng": 76.245,
    "category": "restaurant",
    "subcategory": "restaurant",
    "rating": 4.4,
    "description": "Legendary eatery famous for its Malabar biryani. The Kochi biryani here is a must-try with its distinctive spice blend.",
    "avg_cost": 250,
    "visit_duration": 1.0,
    "best_time": "afternoon",
    "tags": [
      "food"
    ]
  },
  {
    "name": "Munnar Tea Gardens",
    "city": "munnar",
    "state": "kerala",
    "lat": 10.0889,
    "lng": 77.0595,
    "category": "nature",
    "subcategory": "plantation",
    "rating": 4.7,
    "description": "Rolling hills covered with tea plantations offering breathtaking views. Visit the KDHP Tea Museum to learn about tea processing.",
    "avg_cost": 100,
    "visit_duration": 3.0,
    "best_time": "morning",
    "tags": [
      "nature",
      "photography",
      "culture"
    ]
  },
  {
    "name": "Eravikulam National Park",
    "city": "munnar",
    "state": "kerala",
    "lat": 10.1682,
    "lng": 77.0623,
    "category": "nature",
    "subcategory": "national_park",
    "rating": 4.5,
    "description": "Home to the endangered Nilgiri Tahr. The park offers stunning montane grasslands and shola forests at 2000m elevation.",
    "avg_cost": 125,
    "visit_duration": 3.0,
    "best_time": "morning",
    "tags": [
      "nature",
      "adventure"
    ]
  },
  {
    "name": "Mattupetty Dam",
    "city": "munnar",
    "state": "kerala",
    "lat": 10.1089,
    "lng": 77.1358,
    "category": "nature",
    "subcategory": "dam",
    "rating": 4.2,
    "description": "A scenic dam surrounded by tea gardens and forests. Offers speed boat rides on the reservoir with mountain views.",
    "avg_cost": 200,
    "visit_duration": 1.5,
    "best_time": "morning",
    "tags": [
      "nature",
      "adventure"
    ]
  },
  {
    "name": "Udaipur City Palace",
    "city": "udaipur",
    "state": "rajasthan",
    "lat": 24.5764,
    "lng": 73.6913,
    "category": "monument",
    "subcategory": "palace",
    "rating": 4.7,
    "description": "A magnificent palace complex on the banks of Lake Pichola. Features Rajput architecture with courtyards, towers, and gardens.",
    "avg_cost": 300,
    "visit_duration": 3.0,
    "best_time": "morning",
    "tags": [
      "history",
      "architecture",
      "culture"
    ]
  },
  {
    "name": "Lake Pichola",
    "city": "udaipur",
    "state": "rajasthan",
    "lat": 24.5686,
    "lng": 73.6815,
    "category": "nature",
    "subcategory": "lake",
    "rating": 4.6,
    "description": "A beautiful artificial lake surrounded by palaces, temples, and hills. The sunset boat ride is unforgettable.",
    "avg_cost": 400,
    "visit_duration": 2.0,
    "best_time": "evening",
    "tags": [
      "nature",
      "photography",
      "culture"
    ]
  },
  {
    "name": "Jag Mandir",
    "city": "udaipur",
    "state": "rajasthan",
    "lat": 24.5649,
    "lng": 73.6841,
    "category": "monument",
    "subcategory": "island_palace",
    "rating": 4.5,
    "description": "A palace built on an island in Lake Pichola. Features beautiful gardens and a restaurant with lakeside dining.",
    "avg_cost": 300,
    "visit_duration": 2.0,
    "best_time": "evening",
    "tags": [
      "history",
      "culture",
      "photography"
    ]
  },
  {
    "name": "Saheliyon ki Bari",
    "city": "udaipur",
    "state": "rajasthan",
    "lat": 24.5921,
    "lng": 73.6976,
    "category": "park",
    "subcategory": "garden",
    "rating": 4.2,
    "description": "Garden of the Maidens - a beautiful ornamental garden with lotus pools, marble elephants, and fountains.",
    "avg_cost": 10,
    "visit_duration": 1.0,
    "best_time": "morning",
    "tags": [
      "nature",
      "history",
      "photography"
    ]
  },
  {
    "name": "Ambrai Ghat Restaurant",
    "city": "udaipur",
    "state": "rajasthan",
    "lat": 24.5752,
    "lng": 73.6834,
    "category": "restaurant",
    "subcategory": "restaurant",
    "rating": 4.6,
    "description": "A lakeside restaurant offering stunning views of City Palace and Lake Pichola. Known for its Rajasthani thali and tandoori dishes.",
    "avg_cost": 800,
    "visit_duration": 1.5,
    "best_time": "evening",
    "tags": [
      "food",
      "photography"
    ]
  },
  {
    "name": "Mehrangarh Fort",
    "city": "jodhpur",
    "state": "rajasthan",
    "lat": 26.2982,
    "lng": 73.0186,
    "category": "monument",
    "subcategory": "fort",
    "rating": 4.8,
    "description": "One of India's largest and most impressive forts, perched 400 feet above the Blue City. Houses an excellent museum.",
    "avg_cost": 200,
    "visit_duration": 3.0,
    "best_time": "morning",
    "tags": [
      "history",
      "architecture",
      "culture",
      "adventure"
    ]
  },
  {
    "name": "Umaid Bhawan Palace",
    "city": "jodhpur",
    "state": "rajasthan",
    "lat": 26.271,
    "lng": 73.047,
    "category": "monument",
    "subcategory": "palace",
    "rating": 4.6,
    "description": "An Art Deco palace that is still the residence of the Jodhpur royal family. Part of it serves as a Taj hotel and museum.",
    "avg_cost": 100,
    "visit_duration": 1.5,
    "best_time": "morning",
    "tags": [
      "history",
      "architecture",
      "culture"
    ]
  },
  {
    "name": "Clock Tower Market",
    "city": "jodhpur",
    "state": "rajasthan",
    "lat": 26.2949,
    "lng": 73.0271,
    "category": "entertainment",
    "subcategory": "market",
    "rating": 4.1,
    "description": "A vibrant market around the old clock tower selling spices, textiles, silver jewelry, and handicrafts.",
    "avg_cost": 0,
    "visit_duration": 2.0,
    "best_time": "afternoon",
    "tags": [
      "shopping",
      "culture",
      "food"
    ]
  },
  {
    "name": "Shahi Samosa",
    "city": "jodhpur",
    "state": "rajasthan",
    "lat": 26.2951,
    "lng": 73.0265,
    "category": "restaurant",
    "subcategory": "street_food",
    "rating": 4.4,
    "description": "Famous street food stall near Clock Tower known for its giant crispy samosas and mirchi vada, a Jodhpur specialty.",
    "avg_cost": 50,
    "visit_duration": 0.5,
    "best_time": "afternoon",
    "tags": [
      "food"
    ]
  },
  {
    "name": "Toorji Ka Jhalra Stepwell",
    "city": "jodhpur",
    "state": "rajasthan",
    "lat": 26.2953,
    "lng": 73.0264,
    "category": "historic",
    "subcategory": "stepwell",
    "rating": 4.3,
    "description": "A beautifully restored 18th century stepwell with intricate carvings. A peaceful spot surrounded by cafes.",
    "avg_cost": 0,
    "visit_duration": 0.5,
    "best_time": "afternoon",
    "tags": [
      "history",
      "architecture",
      "photography"
    ]
  },
  {
    "name": "Nainital Lake",
    "city": "nainital",
    "state": "uttarakhand",
    "lat": 29.3919,
    "lng": 79.4542,
    "category": "nature",
    "subcategory": "lake",
    "rating": 4.5,
    "description": "A beautiful crescent-shaped lake surrounded by hills. Enjoy boating on the lake or walk along the scenic Mall Road.",
    "avg_cost": 200,
    "visit_duration": 2.0,
    "best_time": "morning",
    "tags": [
      "nature",
      "photography",
      "adventure"
    ]
  },
  {
    "name": "Naina Devi Temple",
    "city": "nainital",
    "state": "uttarakhand",
    "lat": 29.3936,
    "lng": 79.4541,
    "category": "religious",
    "subcategory": "temple",
    "rating": 4.3,
    "description": "Ancient temple on the northern shore of Nainital Lake dedicated to Goddess Naina Devi. Important Shakti Peeth.",
    "avg_cost": 0,
    "visit_duration": 0.5,
    "best_time": "morning",
    "tags": [
      "spiritual",
      "culture"
    ]
  },
  {
    "name": "Snow View Point",
    "city": "nainital",
    "state": "uttarakhand",
    "lat": 29.3987,
    "lng": 79.4534,
    "category": "nature",
    "subcategory": "viewpoint",
    "rating": 4.4,
    "description": "Accessible by cable car, offers stunning views of snow-capped Himalayan peaks including Nanda Devi and Trishul.",
    "avg_cost": 300,
    "visit_duration": 1.5,
    "best_time": "morning",
    "tags": [
      "nature",
      "adventure",
      "photography"
    ]
  },
  {
    "name": "Mall Road Nainital",
    "city": "nainital",
    "state": "uttarakhand",
    "lat": 29.39,
    "lng": 79.455,
    "category": "entertainment",
    "subcategory": "promenade",
    "rating": 4.1,
    "description": "The main shopping and walking street along the lake. Lined with restaurants, shops, and hotels.",
    "avg_cost": 0,
    "visit_duration": 1.5,
    "best_time": "evening",
    "tags": [
      "shopping",
      "food",
      "nature"
    ]
  },
  {
    "name": "Eco Cave Gardens",
    "city": "nainital",
    "state": "uttarakhand",
    "lat": 29.387,
    "lng": 79.463,
    "category": "nature",
    "subcategory": "caves",
    "rating": 3.9,
    "description": "A series of interconnected caves named after animals - Tiger, Panther, Bat, etc. Fun for adventure seekers.",
    "avg_cost": 75,
    "visit_duration": 1.0,
    "best_time": "afternoon",
    "tags": [
      "adventure",
      "nature"
    ]
  },
  {
    "name": "Shimla Ridge",
    "city": "shimla",
    "state": "himachal pradesh",
    "lat": 31.1048,
    "lng": 77.1734,
    "category": "nature",
    "subcategory": "viewpoint",
    "rating": 4.4,
    "description": "A large open space in the heart of Shimla offering views of mountains, hosting cultural events and festivals.",
    "avg_cost": 0,
    "visit_duration": 1.0,
    "best_time": "evening",
    "tags": [
      "nature",
      "photography",
      "culture"
    ]
  },
  {
    "name": "Mall Road Shimla",
    "city": "shimla",
    "state": "himachal pradesh",
    "lat": 31.1045,
    "lng": 77.173,
    "category": "entertainment",
    "subcategory": "promenade",
    "rating": 4.3,
    "description": "The main promenade of Shimla, a car-free zone lined with shops, cafes, and colonial-era buildings.",
    "avg_cost": 0,
    "visit_duration": 2.0,
    "best_time": "afternoon",
    "tags": [
      "shopping",
      "food",
      "culture"
    ]
  },
  {
    "name": "Jakhoo Temple",
    "city": "shimla",
    "state": "himachal pradesh",
    "lat": 31.1119,
    "lng": 77.1828,
    "category": "religious",
    "subcategory": "temple",
    "rating": 4.2,
    "description": "Hilltop temple of Lord Hanuman with a 108-foot statue. The highest point in Shimla with panoramic views.",
    "avg_cost": 0,
    "visit_duration": 1.5,
    "best_time": "morning",
    "tags": [
      "spiritual",
      "nature",
      "adventure"
    ]
  },
  {
    "name": "Christ Church Shimla",
    "city": "shimla",
    "state": "himachal pradesh",
    "lat": 31.1047,
    "lng": 77.1711,
    "category": "religious",
    "subcategory": "church",
    "rating": 4.4,
    "description": "Second oldest church in North India built in 1857. Features beautiful stained glass windows and Neo-Gothic architecture.",
    "avg_cost": 0,
    "visit_duration": 0.5,
    "best_time": "morning",
    "tags": [
      "history",
      "architecture",
      "spiritual"
    ]
  },
  {
    "name": "Kufri",
    "city": "shimla",
    "state": "himachal pradesh",
    "lat": 31.0975,
    "lng": 77.2666,
    "category": "nature",
    "subcategory": "hill_station",
    "rating": 4.2,
    "description": "A small hill station near Shimla known for skiing in winter, horse riding, and scenic Himalayan views.",
    "avg_cost": 300,
    "visit_duration": 3.0,
    "best_time": "morning",
    "tags": [
      "nature",
      "adventure",
      "sports"
    ]
  },
  {
    "name": "Indian Coffee House Shimla",
    "city": "shimla",
    "state": "himachal pradesh",
    "lat": 31.1044,
    "lng": 77.1725,
    "category": "restaurant",
    "subcategory": "cafe",
    "rating": 4.1,
    "description": "Iconic heritage cafe on Mall Road known for its colonial ambiance, filter coffee, and mutton cutlets.",
    "avg_cost": 150,
    "visit_duration": 0.5,
    "best_time": "afternoon",
    "tags": [
      "food",
      "culture"
    ]
  },
  {
    "name": "Hadimba Temple",
    "city": "manali",
    "state": "himachal pradesh",
    "lat": 32.2433,
    "lng": 77.1891,
    "category": "religious",
    "subcategory": "temple",
    "rating": 4.5,
    "description": "An ancient temple surrounded by deodar forests dedicated to Hadimba Devi. Features unique pagoda-style wooden architecture.",
    "avg_cost": 0,
    "visit_duration": 1.0,
    "best_time": "morning",
    "tags": [
      "spiritual",
      "nature",
      "architecture"
    ]
  },
  {
    "name": "Solang Valley",
    "city": "manali",
    "state": "himachal pradesh",
    "lat": 32.3167,
    "lng": 77.1567,
    "category": "nature",
    "subcategory": "valley",
    "rating": 4.5,
    "description": "An adventure hub known for paragliding, zorbing, skiing in winter, and a ropeway giving panoramic mountain views.",
    "avg_cost": 500,
    "visit_duration": 4.0,
    "best_time": "morning",
    "tags": [
      "adventure",
      "nature",
      "sports"
    ]
  },
  {
    "name": "Rohtang Pass",
    "city": "manali",
    "state": "himachal pradesh",
    "lat": 32.3722,
    "lng": 77.2478,
    "category": "nature",
    "subcategory": "mountain_pass",
    "rating": 4.6,
    "description": "A high mountain pass at 3,978m offering stunning views of glaciers, peaks, and the Lahaul Valley.",
    "avg_cost": 500,
    "visit_duration": 5.0,
    "best_time": "morning",
    "tags": [
      "adventure",
      "nature",
      "photography"
    ]
  },
  {
    "name": "Old Manali",
    "city": "manali",
    "state": "himachal pradesh",
    "lat": 32.2556,
    "lng": 77.1889,
    "category": "entertainment",
    "subcategory": "village",
    "rating": 4.3,
    "description": "A charming village with hippie cafes, bakeries, craft shops, and the scenic Manalsu River walks.",
    "avg_cost": 0,
    "visit_duration": 2.0,
    "best_time": "afternoon",
    "tags": [
      "culture",
      "food",
      "shopping",
      "nature"
    ]
  },
  {
    "name": "Vashisht Hot Springs",
    "city": "manali",
    "state": "himachal pradesh",
    "lat": 32.2617,
    "lng": 77.1978,
    "category": "nature",
    "subcategory": "hot_springs",
    "rating": 4.0,
    "description": "Natural hot water springs near an ancient temple. The village also has Turkish baths for relaxation.",
    "avg_cost": 50,
    "visit_duration": 1.0,
    "best_time": "morning",
    "tags": [
      "nature",
      "spiritual"
    ]
  },
  {
    "name": "Lazy Dog Lounge Manali",
    "city": "manali",
    "state": "himachal pradesh",
    "lat": 32.255,
    "lng": 77.1895,
    "category": "restaurant",
    "subcategory": "cafe",
    "rating": 4.3,
    "description": "A cozy cafe in Old Manali known for its wood-fired pizzas, Israeli food, and relaxing mountain-view ambiance.",
    "avg_cost": 400,
    "visit_duration": 1.0,
    "best_time": "evening",
    "tags": [
      "food",
      "culture"
    ]
  },
  {
    "name": "Hampi Ruins",
    "city": "hampi",
    "state": "karnataka",
    "lat": 15.335,
    "lng": 76.4601,
    "category": "historic",
    "subcategory": "ruins",
    "rating": 4.8,
    "description": "UNESCO World Heritage Site. Ruins of the Vijayanagara Empire spread over 4,100 hectares with stunning boulder-strewn landscape.",
    "avg_cost": 40,
    "visit_duration": 6.0,
    "best_time": "morning",
    "tags": [
      "history",
      "culture",
      "architecture",
      "photography"
    ]
  },
  {
    "name": "Virupaksha Temple",
    "city": "hampi",
    "state": "karnataka",
    "lat": 15.335,
    "lng": 76.46,
    "category": "religious",
    "subcategory": "temple",
    "rating": 4.7,
    "description": "An active Hindu temple dating back to the 7th century. The main gopuram is 50m tall and features intricate Dravidian carvings.",
    "avg_cost": 0,
    "visit_duration": 1.0,
    "best_time": "morning",
    "tags": [
      "spiritual",
      "history",
      "architecture"
    ]
  },
  {
    "name": "Vittala Temple",
    "city": "hampi",
    "state": "karnataka",
    "lat": 15.3445,
    "lng": 76.4731,
    "category": "monument",
    "subcategory": "temple",
    "rating": 4.8,
    "description": "Famous for the iconic stone chariot and musical pillars that produce musical notes when tapped. Pinnacle of Vijayanagara architecture.",
    "avg_cost": 40,
    "visit_duration": 2.0,
    "best_time": "morning",
    "tags": [
      "history",
      "architecture",
      "culture"
    ]
  },
  {
    "name": "Matanga Hill",
    "city": "hampi",
    "state": "karnataka",
    "lat": 15.3392,
    "lng": 76.4649,
    "category": "nature",
    "subcategory": "hill",
    "rating": 4.6,
    "description": "The highest point in Hampi offering 360-degree views of the ruins, river, and boulder landscape. Spectacular sunrise spot.",
    "avg_cost": 0,
    "visit_duration": 1.5,
    "best_time": "morning",
    "tags": [
      "nature",
      "adventure",
      "photography"
    ]
  },
  {
    "name": "Mango Tree Restaurant Hampi",
    "city": "hampi",
    "state": "karnataka",
    "lat": 15.334,
    "lng": 76.4595,
    "category": "restaurant",
    "subcategory": "restaurant",
    "rating": 4.2,
    "description": "A riverside restaurant under a large mango tree serving thalis, banana pancakes, and fresh juices.",
    "avg_cost": 200,
    "visit_duration": 1.0,
    "best_time": "afternoon",
    "tags": [
      "food",
      "nature"
    ]
  },
  {
    "name": "Golden Temple",
    "city": "amritsar",
    "state": "punjab",
    "lat": 31.62,
    "lng": 74.8765,
    "category": "religious",
    "subcategory": "gurudwara",
    "rating": 4.9,
    "description": "The holiest shrine of Sikhism. The gold-plated temple sitting in the Amrit Sarovar is awe-inspiring. The langar feeds 100,000 daily.",
    "avg_cost": 0,
    "visit_duration": 3.0,
    "best_time": "morning",
    "tags": [
      "spiritual",
      "culture",
      "architecture",
      "food"
    ]
  },
  {
    "name": "Jallianwala Bagh",
    "city": "amritsar",
    "state": "punjab",
    "lat": 31.6209,
    "lng": 74.8806,
    "category": "historic",
    "subcategory": "memorial",
    "rating": 4.5,
    "description": "Historic garden and memorial commemorating the 1919 massacre. Bullet holes are still visible in the walls.",
    "avg_cost": 0,
    "visit_duration": 1.0,
    "best_time": "morning",
    "tags": [
      "history",
      "culture"
    ]
  },
  {
    "name": "Wagah Border",
    "city": "amritsar",
    "state": "punjab",
    "lat": 31.6047,
    "lng": 74.5733,
    "category": "entertainment",
    "subcategory": "ceremony",
    "rating": 4.6,
    "description": "The India-Pakistan border where the evening flag-lowering ceremony draws thousands of spectators with patriotic fervor.",
    "avg_cost": 0,
    "visit_duration": 3.0,
    "best_time": "evening",
    "tags": [
      "culture",
      "entertainment"
    ]
  },
  {
    "name": "Kesar Da Dhaba",
    "city": "amritsar",
    "state": "punjab",
    "lat": 31.625,
    "lng": 74.87,
    "category": "restaurant",
    "subcategory": "restaurant",
    "rating": 4.5,
    "description": "A century-old dhaba famous for its dal makhani slow-cooked overnight and butter-loaded naan.",
    "avg_cost": 250,
    "visit_duration": 1.0,
    "best_time": "afternoon",
    "tags": [
      "food",
      "culture"
    ]
  },
  {
    "name": "Kullu Manali",
    "city": "kullu",
    "state": "himachal pradesh",
    "lat": 31.9592,
    "lng": 77.1089,
    "category": "nature",
    "subcategory": "valley",
    "rating": 4.4,
    "description": "A scenic valley along the Beas River with apple orchards, hot springs, and adventure activities like rafting.",
    "avg_cost": 300,
    "visit_duration": 3.0,
    "best_time": "morning",
    "tags": [
      "nature",
      "adventure"
    ]
  },
  {
    "name": "Rishikesh Lakshman Jhula",
    "city": "rishikesh",
    "state": "uttarakhand",
    "lat": 30.1255,
    "lng": 78.3215,
    "category": "monument",
    "subcategory": "bridge",
    "rating": 4.3,
    "description": "An iconic suspension bridge over the Ganges at 450 feet. Offers views of ashrams, temples, and the river below.",
    "avg_cost": 0,
    "visit_duration": 1.0,
    "best_time": "morning",
    "tags": [
      "spiritual",
      "culture",
      "photography"
    ]
  },
  {
    "name": "River Rafting Rishikesh",
    "city": "rishikesh",
    "state": "uttarakhand",
    "lat": 30.105,
    "lng": 78.29,
    "category": "entertainment",
    "subcategory": "activity",
    "rating": 4.6,
    "description": "White water rafting on the Ganges through Grade 3 and 4 rapids. A top adventure sport destination in India.",
    "avg_cost": 1000,
    "visit_duration": 3.0,
    "best_time": "morning",
    "tags": [
      "adventure",
      "nature",
      "sports"
    ]
  },
  {
    "name": "Triveni Ghat",
    "city": "rishikesh",
    "state": "uttarakhand",
    "lat": 30.1071,
    "lng": 78.2977,
    "category": "religious",
    "subcategory": "ghat",
    "rating": 4.5,
    "description": "A sacred bathing ghat where three rivers meet. The evening Ganga Aarti here is a peaceful spiritual experience.",
    "avg_cost": 0,
    "visit_duration": 1.0,
    "best_time": "evening",
    "tags": [
      "spiritual",
      "culture"
    ]
  },
  {
    "name": "Beatles Ashram",
    "city": "rishikesh",
    "state": "uttarakhand",
    "lat": 30.1273,
    "lng": 78.3221,
    "category": "historic",
    "subcategory": "ashram",
    "rating": 4.3,
    "description": "The former Maharishi Mahesh Yogi ashram where The Beatles stayed in 1968. Now features colorful graffiti art.",
    "avg_cost": 150,
    "visit_duration": 1.5,
    "best_time": "morning",
    "tags": [
      "history",
      "culture",
      "art",
      "spiritual"
    ]
  },
  {
    "name": "Chotiwala Restaurant",
    "city": "rishikesh",
    "state": "uttarakhand",
    "lat": 30.125,
    "lng": 78.32,
    "category": "restaurant",
    "subcategory": "restaurant",
    "rating": 4.1,
    "description": "An iconic vegetarian restaurant near Ram Jhula known for its thalis, aloo tikki, and the costumed mascot at the entrance.",
    "avg_cost": 200,
    "visit_duration": 1.0,
    "best_time": "afternoon",
    "tags": [
      "food",
      "culture"
    ]
  },
  {
    "name": "Bangalore Palace",
    "city": "bangalore",
    "state": "karnataka",
    "lat": 12.9988,
    "lng": 77.5922,
    "category": "monument",
    "subcategory": "palace",
    "rating": 4.2,
    "description": "A Tudor-style palace inspired by Windsor Castle with beautiful woodcarvings, gardens, and a mix of Gothic and Victorian architecture.",
    "avg_cost": 230,
    "visit_duration": 1.5,
    "best_time": "morning",
    "tags": [
      "history",
      "architecture",
      "culture"
    ]
  },
  {
    "name": "Lalbagh Botanical Garden",
    "city": "bangalore",
    "state": "karnataka",
    "lat": 12.9507,
    "lng": 77.5848,
    "category": "park",
    "subcategory": "garden",
    "rating": 4.5,
    "description": "A 240-acre garden with a Glass House, over 1,000 species of plants, a beautiful lake, and India's largest collection of tropical plants.",
    "avg_cost": 30,
    "visit_duration": 2.0,
    "best_time": "morning",
    "tags": [
      "nature",
      "photography"
    ]
  },
  {
    "name": "Cubbon Park",
    "city": "bangalore",
    "state": "karnataka",
    "lat": 12.9763,
    "lng": 77.5929,
    "category": "park",
    "subcategory": "park",
    "rating": 4.3,
    "description": "A sprawling green lung of Bangalore spread over 300 acres with walking paths, a toy train, and colonial-era buildings.",
    "avg_cost": 0,
    "visit_duration": 1.5,
    "best_time": "morning",
    "tags": [
      "nature",
      "sports"
    ]
  },
  {
    "name": "ISKCON Temple Bangalore",
    "city": "bangalore",
    "state": "karnataka",
    "lat": 13.0104,
    "lng": 77.5511,
    "category": "religious",
    "subcategory": "temple",
    "rating": 4.5,
    "description": "One of the largest ISKCON temples in the world, blending modern architecture with traditional temple design.",
    "avg_cost": 0,
    "visit_duration": 1.5,
    "best_time": "evening",
    "tags": [
      "spiritual",
      "architecture"
    ]
  },
  {
    "name": "Vidyarthi Bhavan",
    "city": "bangalore",
    "state": "karnataka",
    "lat": 12.951,
    "lng": 77.573,
    "category": "restaurant",
    "subcategory": "restaurant",
    "rating": 4.6,
    "description": "Legendary since 1943, serving the crispiest butter-soaked masala dosa in Bangalore. Always has a queue.",
    "avg_cost": 100,
    "visit_duration": 0.5,
    "best_time": "morning",
    "tags": [
      "food"
    ]
  },
  {
    "name": "MTR (Mavalli Tiffin Rooms)",
    "city": "bangalore",
    "state": "karnataka",
    "lat": 12.9554,
    "lng": 77.573,
    "category": "restaurant",
    "subcategory": "restaurant",
    "rating": 4.5,
    "description": "A heritage restaurant since 1924 famous for its rava idli (which it invented), filter coffee, and full South Indian meals.",
    "avg_cost": 150,
    "visit_duration": 0.5,
    "best_time": "morning",
    "tags": [
      "food",
      "culture"
    ]
  },
  {
    "name": "Meenakshi Amman Temple",
    "city": "madurai",
    "state": "tamil nadu",
    "lat": 9.9195,
    "lng": 78.1193,
    "category": "religious",
    "subcategory": "temple",
    "rating": 4.8,
    "description": "A historic temple with 14 colorful gopurams (gateway towers) covered in thousands of sculpted Hindu deities. A masterpiece of Dravidian architecture.",
    "avg_cost": 0,
    "visit_duration": 2.5,
    "best_time": "morning",
    "tags": [
      "spiritual",
      "history",
      "architecture",
      "culture"
    ]
  },
  {
    "name": "Thirumalai Nayakkar Mahal",
    "city": "madurai",
    "state": "tamil nadu",
    "lat": 9.9158,
    "lng": 78.1243,
    "category": "monument",
    "subcategory": "palace",
    "rating": 4.2,
    "description": "A 17th century palace with Indo-Saracenic architecture, featuring massive pillars and a grand courtyard.",
    "avg_cost": 50,
    "visit_duration": 1.0,
    "best_time": "morning",
    "tags": [
      "history",
      "architecture"
    ]
  },
  {
    "name": "Gandhi Memorial Museum",
    "city": "madurai",
    "state": "tamil nadu",
    "lat": 9.9214,
    "lng": 78.1074,
    "category": "museum",
    "subcategory": "museum",
    "rating": 4.1,
    "description": "One of five Gandhi museums in India. Houses the blood-stained cloth Mahatma Gandhi wore when he was assassinated.",
    "avg_cost": 0,
    "visit_duration": 1.0,
    "best_time": "morning",
    "tags": [
      "history",
      "culture"
    ]
  },
  {
    "name": "Murugan Idli Shop",
    "city": "madurai",
    "state": "tamil nadu",
    "lat": 9.92,
    "lng": 78.119,
    "category": "restaurant",
    "subcategory": "restaurant",
    "rating": 4.3,
    "description": "Famous chain that started in Madurai known for its soft idlis, crispy dosas, and spicy chutneys at budget prices.",
    "avg_cost": 80,
    "visit_duration": 0.5,
    "best_time": "morning",
    "tags": [
      "food"
    ]
  },
  {
    "name": "Pushkar Lake",
    "city": "pushkar",
    "state": "rajasthan",
    "lat": 26.4895,
    "lng": 74.5551,
    "category": "religious",
    "subcategory": "lake",
    "rating": 4.4,
    "description": "A sacred lake surrounded by 52 ghats. One of the five sacred pilgrimage spots for Hindus. The evening aarti is beautiful.",
    "avg_cost": 0,
    "visit_duration": 1.5,
    "best_time": "evening",
    "tags": [
      "spiritual",
      "nature",
      "culture"
    ]
  },
  {
    "name": "Brahma Temple Pushkar",
    "city": "pushkar",
    "state": "rajasthan",
    "lat": 26.4898,
    "lng": 74.5534,
    "category": "religious",
    "subcategory": "temple",
    "rating": 4.5,
    "description": "One of the very few temples in the world dedicated to Lord Brahma. A 14th century red spire temple.",
    "avg_cost": 0,
    "visit_duration": 1.0,
    "best_time": "morning",
    "tags": [
      "spiritual",
      "history",
      "culture"
    ]
  },
  {
    "name": "Savitri Temple",
    "city": "pushkar",
    "state": "rajasthan",
    "lat": 26.4801,
    "lng": 74.5513,
    "category": "religious",
    "subcategory": "temple",
    "rating": 4.3,
    "description": "A hilltop temple reached by ropeway offering panoramic views of Pushkar Lake and the surrounding desert landscape.",
    "avg_cost": 150,
    "visit_duration": 1.5,
    "best_time": "evening",
    "tags": [
      "spiritual",
      "nature",
      "adventure",
      "photography"
    ]
  },
  {
    "name": "Darjeeling Himalayan Railway",
    "city": "darjeeling",
    "state": "west bengal",
    "lat": 27.04,
    "lng": 88.2627,
    "category": "entertainment",
    "subcategory": "railway",
    "rating": 4.6,
    "description": "UNESCO World Heritage toy train running through the mountains. A 2-hour joyride from Darjeeling through loops and zig-zags.",
    "avg_cost": 1500,
    "visit_duration": 2.0,
    "best_time": "morning",
    "tags": [
      "adventure",
      "nature",
      "history",
      "photography"
    ]
  },
  {
    "name": "Tiger Hill",
    "city": "darjeeling",
    "state": "west bengal",
    "lat": 26.9978,
    "lng": 88.2823,
    "category": "nature",
    "subcategory": "viewpoint",
    "rating": 4.7,
    "description": "The highest point in Darjeeling at 2590m offering spectacular sunrise views of Kanchenjunga and Mount Everest.",
    "avg_cost": 200,
    "visit_duration": 2.0,
    "best_time": "morning",
    "tags": [
      "nature",
      "photography",
      "adventure"
    ]
  },
  {
    "name": "Happy Valley Tea Estate",
    "city": "darjeeling",
    "state": "west bengal",
    "lat": 27.03,
    "lng": 88.253,
    "category": "nature",
    "subcategory": "plantation",
    "rating": 4.4,
    "description": "One of the oldest tea estates in Darjeeling. Walk through the tea gardens and learn the entire tea-making process.",
    "avg_cost": 100,
    "visit_duration": 1.5,
    "best_time": "morning",
    "tags": [
      "nature",
      "culture"
    ]
  },
  {
    "name": "Batasia Loop",
    "city": "darjeeling",
    "state": "west bengal",
    "lat": 27.0249,
    "lng": 88.2674,
    "category": "nature",
    "subcategory": "viewpoint",
    "rating": 4.3,
    "description": "A spiral railway loop where the toy train navigates a 360-degree turn. Features a war memorial and Kanchenjunga views.",
    "avg_cost": 30,
    "visit_duration": 0.5,
    "best_time": "morning",
    "tags": [
      "nature",
      "photography",
      "history"
    ]
  },
  {
    "name": "Glenary's",
    "city": "darjeeling",
    "state": "west bengal",
    "lat": 27.0395,
    "lng": 88.2625,
    "category": "restaurant",
    "subcategory": "cafe",
    "rating": 4.3,
    "description": "A heritage bakery and restaurant since 1935. Known for its pastries, continental food, and mountain-view terrace.",
    "avg_cost": 400,
    "visit_duration": 1.0,
    "best_time": "afternoon",
    "tags": [
      "food"
    ]
  },
  {
    "name": "Ooty Lake",
    "city": "ooty",
    "state": "tamil nadu",
    "lat": 11.4029,
    "lng": 76.6891,
    "category": "nature",
    "subcategory": "lake",
    "rating": 4.2,
    "description": "An artificial lake surrounded by eucalyptus trees. Enjoy pedal boating with views of the Nilgiri Mountains.",
    "avg_cost": 100,
    "visit_duration": 1.5,
    "best_time": "morning",
    "tags": [
      "nature",
      "photography"
    ]
  },
  {
    "name": "Botanical Garden Ooty",
    "city": "ooty",
    "state": "tamil nadu",
    "lat": 11.4136,
    "lng": 76.7155,
    "category": "park",
    "subcategory": "garden",
    "rating": 4.3,
    "description": "A stunning 55-acre garden with over 650 species of plants, a fossilized tree trunk, and terraced lawns.",
    "avg_cost": 30,
    "visit_duration": 1.5,
    "best_time": "morning",
    "tags": [
      "nature"
    ]
  },
  {
    "name": "Nilgiri Mountain Railway",
    "city": "ooty",
    "state": "tamil nadu",
    "lat": 11.4004,
    "lng": 76.6928,
    "category": "entertainment",
    "subcategory": "railway",
    "rating": 4.6,
    "description": "UNESCO World Heritage rack railway. A scenic journey from Mettupalayam through 16 tunnels and 250 bridges.",
    "avg_cost": 300,
    "visit_duration": 5.0,
    "best_time": "morning",
    "tags": [
      "adventure",
      "nature",
      "history"
    ]
  },
  {
    "name": "Doddabetta Peak",
    "city": "ooty",
    "state": "tamil nadu",
    "lat": 11.4,
    "lng": 76.7356,
    "category": "nature",
    "subcategory": "peak",
    "rating": 4.2,
    "description": "The highest peak in the Nilgiri Mountains at 2637m. Features a telescope house for viewing the surrounding landscape.",
    "avg_cost": 30,
    "visit_duration": 1.5,
    "best_time": "morning",
    "tags": [
      "nature",
      "adventure",
      "photography"
    ]
  },
  {
    "name": "Hyderabad Charminar",
    "city": "hyderabad",
    "state": "telangana",
    "lat": 17.3616,
    "lng": 78.4747,
    "category": "monument",
    "subcategory": "arch",
    "rating": 4.5,
    "description": "The iconic symbol of Hyderabad built in 1591. A mosque with four grand arches and minarets in the center of the old city.",
    "avg_cost": 25,
    "visit_duration": 1.0,
    "best_time": "morning",
    "tags": [
      "history",
      "architecture",
      "culture"
    ]
  },
  {
    "name": "Golconda Fort",
    "city": "hyderabad",
    "state": "telangana",
    "lat": 17.3833,
    "lng": 78.4011,
    "category": "monument",
    "subcategory": "fort",
    "rating": 4.6,
    "description": "A fortress famous for its acoustic system - a handclap at the gate can be heard at the top. Former diamond trading center.",
    "avg_cost": 25,
    "visit_duration": 2.5,
    "best_time": "morning",
    "tags": [
      "history",
      "architecture",
      "adventure"
    ]
  },
  {
    "name": "Ramoji Film City",
    "city": "hyderabad",
    "state": "telangana",
    "lat": 17.2543,
    "lng": 78.6808,
    "category": "entertainment",
    "subcategory": "theme_park",
    "rating": 4.3,
    "description": "The world's largest integrated film city. Features live shows, film sets, adventure activities, and themed gardens.",
    "avg_cost": 1200,
    "visit_duration": 6.0,
    "best_time": "morning",
    "tags": [
      "entertainment",
      "culture",
      "adventure"
    ]
  },
  {
    "name": "Chowmahalla Palace",
    "city": "hyderabad",
    "state": "telangana",
    "lat": 17.3578,
    "lng": 78.4722,
    "category": "monument",
    "subcategory": "palace",
    "rating": 4.5,
    "description": "The seat of the Asaf Jahi dynasty. Elaborately decorated with Belgian crystal chandeliers and vintage cars.",
    "avg_cost": 80,
    "visit_duration": 1.5,
    "best_time": "morning",
    "tags": [
      "history",
      "architecture",
      "culture"
    ]
  },
  {
    "name": "Salar Jung Museum",
    "city": "hyderabad",
    "state": "telangana",
    "lat": 17.3714,
    "lng": 78.4804,
    "category": "museum",
    "subcategory": "museum",
    "rating": 4.4,
    "description": "One of the largest one-man collections in the world. Features the famous Veiled Rebecca sculpture and a musical clock.",
    "avg_cost": 20,
    "visit_duration": 2.5,
    "best_time": "morning",
    "tags": [
      "history",
      "culture",
      "art"
    ]
  },
  {
    "name": "Paradise Biryani",
    "city": "hyderabad",
    "state": "telangana",
    "lat": 17.44,
    "lng": 78.4982,
    "category": "restaurant",
    "subcategory": "restaurant",
    "rating": 4.4,
    "description": "The most famous biryani restaurant in Hyderabad since 1953. The Hyderabadi dum biryani is a must-try.",
    "avg_cost": 300,
    "visit_duration": 1.0,
    "best_time": "afternoon",
    "tags": [
      "food"
    ]
  },
  {
    "name": "Shah Ghouse",
    "city": "hyderabad",
    "state": "telangana",
    "lat": 17.39,
    "lng": 78.49,
    "category": "restaurant",
    "subcategory": "restaurant",
    "rating": 4.3,
    "description": "Famous for its late-night Haleem, kebabs, and paya. A Hyderabad institution for non-vegetarian food lovers.",
    "avg_cost": 250,
    "visit_duration": 1.0,
    "best_time": "evening",
    "tags": [
      "food",
      "nightlife"
    ]
  },
  {
    "name": "Hussain Sagar Lake",
    "city": "hyderabad",
    "state": "telangana",
    "lat": 17.4239,
    "lng": 78.4738,
    "category": "nature",
    "subcategory": "lake",
    "rating": 4.1,
    "description": "A heart-shaped lake with a 16m monolithic Buddha statue on Gibraltar Rock in the center. Enjoy boat rides to the statue.",
    "avg_cost": 200,
    "visit_duration": 1.5,
    "best_time": "evening",
    "tags": [
      "nature",
      "culture",
      "photography"
    ]
  },
  {
    "name": "Howrah Bridge",
    "city": "kolkata",
    "state": "west bengal",
    "lat": 22.585,
    "lng": 88.3468,
    "category": "architecture",
    "subcategory": "bridge",
    "rating": 4.4,
    "description": "An iconic cantilever bridge over the Hooghly River. One of the busiest bridges in the world, carrying 100,000 vehicles daily.",
    "avg_cost": 0,
    "visit_duration": 0.5,
    "best_time": "evening",
    "tags": [
      "architecture",
      "photography",
      "culture"
    ]
  },
  {
    "name": "Victoria Memorial",
    "city": "kolkata",
    "state": "west bengal",
    "lat": 22.5449,
    "lng": 88.3426,
    "category": "museum",
    "subcategory": "memorial",
    "rating": 4.6,
    "description": "A grand white marble building with a museum dedicated to Queen Victoria. The gardens and light-and-sound show are beautiful.",
    "avg_cost": 30,
    "visit_duration": 2.0,
    "best_time": "afternoon",
    "tags": [
      "history",
      "architecture",
      "culture",
      "photography"
    ]
  },
  {
    "name": "Indian Museum Kolkata",
    "city": "kolkata",
    "state": "west bengal",
    "lat": 22.558,
    "lng": 88.351,
    "category": "museum",
    "subcategory": "museum",
    "rating": 4.3,
    "description": "The oldest and largest museum in India founded in 1814. Houses Egyptian mummies, Mughal paintings, and dinosaur fossils.",
    "avg_cost": 20,
    "visit_duration": 2.0,
    "best_time": "morning",
    "tags": [
      "history",
      "culture",
      "art"
    ]
  },
  {
    "name": "Dakshineswar Kali Temple",
    "city": "kolkata",
    "state": "west bengal",
    "lat": 22.6551,
    "lng": 88.3575,
    "category": "religious",
    "subcategory": "temple",
    "rating": 4.6,
    "description": "A famous temple on the banks of the Hooghly River associated with Ramakrishna Paramahansa. Features 12 Shiva temples.",
    "avg_cost": 0,
    "visit_duration": 1.5,
    "best_time": "morning",
    "tags": [
      "spiritual",
      "culture",
      "history"
    ]
  },
  {
    "name": "Park Street",
    "city": "kolkata",
    "state": "west bengal",
    "lat": 22.5523,
    "lng": 88.3517,
    "category": "entertainment",
    "subcategory": "street",
    "rating": 4.2,
    "description": "The food and nightlife hub of Kolkata lined with restaurants, pubs, and bookstores. Christmas celebrations here are legendary.",
    "avg_cost": 0,
    "visit_duration": 2.0,
    "best_time": "evening",
    "tags": [
      "food",
      "nightlife",
      "shopping",
      "culture"
    ]
  },
  {
    "name": "Peter Cat",
    "city": "kolkata",
    "state": "west bengal",
    "lat": 22.5523,
    "lng": 88.3517,
    "category": "restaurant",
    "subcategory": "restaurant",
    "rating": 4.4,
    "description": "An iconic Park Street restaurant since 1958 famous for its Chelo Kebab - a sizzling platter of kebabs with rice and egg.",
    "avg_cost": 500,
    "visit_duration": 1.0,
    "best_time": "evening",
    "tags": [
      "food",
      "culture"
    ]
  },
  {
    "name": "Flurys",
    "city": "kolkata",
    "state": "west bengal",
    "lat": 22.5524,
    "lng": 88.3515,
    "category": "restaurant",
    "subcategory": "cafe",
    "rating": 4.3,
    "description": "An iconic tearoom since 1927 on Park Street. Famous for its pastries, rum balls, and colonial charm.",
    "avg_cost": 300,
    "visit_duration": 1.0,
    "best_time": "afternoon",
    "tags": [
      "food",
      "culture"
    ]
  },
  {
    "name": "New Market Kolkata",
    "city": "kolkata",
    "state": "west bengal",
    "lat": 22.5583,
    "lng": 78.3497,
    "category": "entertainment",
    "subcategory": "market",
    "rating": 4.0,
    "description": "A sprawling Victorian-era market selling everything from clothes to electronics to fresh produce. Great for bargain hunters.",
    "avg_cost": 0,
    "visit_duration": 2.0,
    "best_time": "morning",
    "tags": [
      "shopping",
      "culture"
    ]
  },
  {
    "name": "Mahabalipuram Shore Temple",
    "city": "chennai",
    "state": "tamil nadu",
    "lat": 12.6166,
    "lng": 80.1993,
    "category": "monument",
    "subcategory": "temple",
    "rating": 4.6,
    "description": "UNESCO World Heritage Site. A 7th century structural temple overlooking the Bay of Bengal with stunning Dravidian architecture.",
    "avg_cost": 40,
    "visit_duration": 2.0,
    "best_time": "morning",
    "tags": [
      "history",
      "architecture",
      "culture",
      "beaches"
    ]
  },
  {
    "name": "Kapaleeshwarar Temple",
    "city": "chennai",
    "state": "tamil nadu",
    "lat": 13.0339,
    "lng": 80.2695,
    "category": "religious",
    "subcategory": "temple",
    "rating": 4.5,
    "description": "A stunning Dravidian temple dedicated to Lord Shiva in Mylapore. Features a 37m gopuram covered in colorful sculptures.",
    "avg_cost": 0,
    "visit_duration": 1.0,
    "best_time": "morning",
    "tags": [
      "spiritual",
      "architecture",
      "culture"
    ]
  },
  {
    "name": "Marina Beach",
    "city": "chennai",
    "state": "tamil nadu",
    "lat": 13.05,
    "lng": 80.2824,
    "category": "nature",
    "subcategory": "beach",
    "rating": 4.2,
    "description": "The second longest urban beach in the world. Famous for evening walks, horse rides, and street food stalls.",
    "avg_cost": 0,
    "visit_duration": 1.5,
    "best_time": "evening",
    "tags": [
      "beaches",
      "nature",
      "food"
    ]
  },
  {
    "name": "Government Museum Chennai",
    "city": "chennai",
    "state": "tamil nadu",
    "lat": 13.0696,
    "lng": 80.2563,
    "category": "museum",
    "subcategory": "museum",
    "rating": 4.1,
    "description": "India's second oldest museum with an excellent collection of South Indian bronzes, Roman antiquities, and Buddhist sculptures.",
    "avg_cost": 15,
    "visit_duration": 2.0,
    "best_time": "morning",
    "tags": [
      "history",
      "culture",
      "art"
    ]
  },
  {
    "name": "San Thome Basilica",
    "city": "chennai",
    "state": "tamil nadu",
    "lat": 13.0332,
    "lng": 80.2778,
    "category": "religious",
    "subcategory": "church",
    "rating": 4.3,
    "description": "A Neo-Gothic church built over the tomb of Saint Thomas the Apostle. One of only three churches in the world built over an apostle's tomb.",
    "avg_cost": 0,
    "visit_duration": 1.0,
    "best_time": "morning",
    "tags": [
      "spiritual",
      "history",
      "architecture"
    ]
  },
  {
    "name": "Saravana Bhavan",
    "city": "chennai",
    "state": "tamil nadu",
    "lat": 13.068,
    "lng": 80.256,
    "category": "restaurant",
    "subcategory": "restaurant",
    "rating": 4.4,
    "description": "The world-famous South Indian vegetarian restaurant chain that started in Chennai. Known for its dosas, idlis, and south Indian meals.",
    "avg_cost": 150,
    "visit_duration": 0.5,
    "best_time": "morning",
    "tags": [
      "food"
    ]
  },
  {
    "name": "Panna Meena Ka Kund",
    "city": "jaipur",
    "state": "rajasthan",
    "lat": 26.9833,
    "lng": 75.8517,
    "category": "historic",
    "subcategory": "stepwell",
    "rating": 4.3,
    "description": "A stunning 16th-century stepwell with a geometric crisscross pattern of stairs. A hidden gem near Amber Fort that has become a favorite for photographers.",
    "avg_cost": 0,
    "visit_duration": 0.5,
    "best_time": "morning",
    "tags": [
      "history",
      "architecture",
      "photography"
    ]
  },
  {
    "name": "Galtaji Temple",
    "city": "jaipur",
    "state": "rajasthan",
    "lat": 26.9185,
    "lng": 75.8566,
    "category": "religious",
    "subcategory": "temple",
    "rating": 4.1,
    "description": "An ancient Hindu pilgrimage site set amidst rocky hills with natural spring water kunds. Also known as the Monkey Temple.",
    "avg_cost": 0,
    "visit_duration": 1.5,
    "best_time": "morning",
    "tags": [
      "spiritual",
      "nature",
      "culture",
      "adventure"
    ]
  },
  {
    "name": "Sisodia Rani Garden",
    "city": "jaipur",
    "state": "rajasthan",
    "lat": 26.8935,
    "lng": 75.8568,
    "category": "park",
    "subcategory": "garden",
    "rating": 3.9,
    "description": "Built in 1728 by Maharaja Sawai Jai Singh II for his queen, this multi-tiered garden features murals, fountains, and Mughal-style landscaping.",
    "avg_cost": 50,
    "visit_duration": 1.0,
    "best_time": "morning",
    "tags": [
      "nature",
      "history",
      "photography",
      "culture"
    ]
  },
  {
    "name": "Tomb of Itimad-ud-Daulah",
    "city": "agra",
    "state": "uttar pradesh",
    "lat": 27.1925,
    "lng": 78.031,
    "category": "monument",
    "subcategory": "tomb",
    "rating": 4.3,
    "description": "Often called the Baby Taj, this is an exquisite Mughal tomb made entirely of white marble with intricate pietra dura inlay work. Built before the Taj Mahal.",
    "avg_cost": 30,
    "visit_duration": 1.5,
    "best_time": "morning",
    "tags": [
      "history",
      "architecture",
      "culture",
      "photography"
    ]
  },
  {
    "name": "Kinari Bazaar Agra",
    "city": "agra",
    "state": "uttar pradesh",
    "lat": 27.1811,
    "lng": 78.0186,
    "category": "entertainment",
    "subcategory": "market",
    "rating": 4.0,
    "description": "One of the oldest and busiest markets in Agra, famous for marble handicrafts, petha sweets, leather goods, and embroidered fabrics.",
    "avg_cost": 0,
    "visit_duration": 2.0,
    "best_time": "afternoon",
    "tags": [
      "shopping",
      "culture",
      "food"
    ]
  },
  {
    "name": "Partition Museum",
    "city": "amritsar",
    "state": "punjab",
    "lat": 31.6204,
    "lng": 74.8765,
    "category": "museum",
    "subcategory": "museum",
    "rating": 4.5,
    "description": "The world's first Partition Museum documenting the stories and artifacts from the 1947 partition of India. A deeply moving experience.",
    "avg_cost": 0,
    "visit_duration": 2.0,
    "best_time": "morning",
    "tags": [
      "history",
      "culture",
      "art"
    ]
  },
  {
    "name": "Maharaja Ranjit Singh Museum",
    "city": "amritsar",
    "state": "punjab",
    "lat": 31.631,
    "lng": 74.8709,
    "category": "museum",
    "subcategory": "museum",
    "rating": 4.2,
    "description": "Housed in a summer palace, this museum displays weapons, paintings, and artifacts from the Sikh Empire era under Maharaja Ranjit Singh.",
    "avg_cost": 25,
    "visit_duration": 1.5,
    "best_time": "morning",
    "tags": [
      "history",
      "culture",
      "art"
    ]
  },
  {
    "name": "Gobindgarh Fort",
    "city": "amritsar",
    "state": "punjab",
    "lat": 31.6283,
    "lng": 74.863,
    "category": "monument",
    "subcategory": "fort",
    "rating": 4.3,
    "description": "An 18th-century Sikh fortress now converted into a heritage experience with 7D theatre, war galleries, and live performances showcasing Punjab's history.",
    "avg_cost": 250,
    "visit_duration": 3.0,
    "best_time": "evening",
    "tags": [
      "history",
      "culture",
      "entertainment",
      "adventure"
    ]
  },
  {
    "name": "Nandi Hills",
    "city": "bangalore",
    "state": "karnataka",
    "lat": 13.3702,
    "lng": 77.6835,
    "category": "nature",
    "subcategory": "hill_station",
    "rating": 4.4,
    "description": "A scenic hill fortress famous for its breathtaking sunrise views, paragliding opportunities, and pleasant weather. Located 60 km from Bangalore.",
    "avg_cost": 10,
    "visit_duration": 4.0,
    "best_time": "morning",
    "tags": [
      "nature",
      "adventure",
      "photography"
    ]
  },
  {
    "name": "Santhome Cathedral Basilica",
    "city": "chennai",
    "state": "tamil nadu",
    "lat": 13.0335,
    "lng": 80.278,
    "category": "religious",
    "subcategory": "church",
    "rating": 4.3,
    "description": "A 16th-century cathedral built over the tomb of St. Thomas, one of the twelve apostles of Jesus. One of only three churches in the world built over the tomb of an apostle.",
    "avg_cost": 0,
    "visit_duration": 1.0,
    "best_time": "morning",
    "tags": [
      "spiritual",
      "history",
      "architecture"
    ]
  },
  {
    "name": "Guindy National Park",
    "city": "chennai",
    "state": "tamil nadu",
    "lat": 13.0067,
    "lng": 80.2325,
    "category": "nature",
    "subcategory": "national_park",
    "rating": 4.1,
    "description": "One of the smallest national parks in India located inside the city. Home to blackbuck, spotted deer, jackals, and over 150 species of birds.",
    "avg_cost": 15,
    "visit_duration": 2.0,
    "best_time": "morning",
    "tags": [
      "nature",
      "adventure"
    ]
  },
  {
    "name": "DakshinaChitra Heritage Museum",
    "city": "chennai",
    "state": "tamil nadu",
    "lat": 12.7978,
    "lng": 80.224,
    "category": "museum",
    "subcategory": "heritage",
    "rating": 4.4,
    "description": "A living heritage museum showcasing the art, architecture, crafts, and performing arts of South India through reconstructed traditional houses.",
    "avg_cost": 120,
    "visit_duration": 2.5,
    "best_time": "morning",
    "tags": [
      "culture",
      "art",
      "history"
    ]
  },
  {
    "name": "Padmaja Naidu Himalayan Zoological Park",
    "city": "darjeeling",
    "state": "west bengal",
    "lat": 27.0514,
    "lng": 88.2563,
    "category": "nature",
    "subcategory": "zoo",
    "rating": 4.2,
    "description": "High-altitude zoo housing snow leopards, red pandas, Tibetan wolves, and Himalayan black bears. The snow leopard breeding program here is globally renowned.",
    "avg_cost": 60,
    "visit_duration": 2.5,
    "best_time": "morning",
    "tags": [
      "nature",
      "adventure"
    ]
  },
  {
    "name": "Glenary's Bakery & Cafe",
    "city": "darjeeling",
    "state": "west bengal",
    "lat": 27.049,
    "lng": 88.2615,
    "category": "restaurant",
    "subcategory": "cafe",
    "rating": 4.4,
    "description": "A colonial-era bakery and restaurant established in 1935, serving freshly baked pastries and multi-cuisine food with panoramic mountain views from the terrace.",
    "avg_cost": 500,
    "visit_duration": 1.0,
    "best_time": "afternoon",
    "tags": [
      "food",
      "culture"
    ]
  },
  {
    "name": "Karim's Old Delhi",
    "city": "delhi",
    "state": "delhi",
    "lat": 28.648,
    "lng": 77.2337,
    "category": "restaurant",
    "subcategory": "restaurant",
    "rating": 4.6,
    "description": "A legendary Mughal cuisine restaurant established in 1913, serving recipes passed down from royal cooks of the Mughal court. Famous for its mutton burra.",
    "avg_cost": 500,
    "visit_duration": 1.0,
    "best_time": "afternoon",
    "tags": [
      "food",
      "culture",
      "history"
    ]
  },
  {
    "name": "Spice Plantation Tour",
    "city": "goa",
    "state": "goa",
    "lat": 15.449,
    "lng": 74.0103,
    "category": "nature",
    "subcategory": "plantation",
    "rating": 4.2,
    "description": "Visit a working organic spice plantation growing cardamom, cinnamon, nutmeg, and vanilla. Includes guided tours and traditional Goan lunch.",
    "avg_cost": 500,
    "visit_duration": 3.0,
    "best_time": "morning",
    "tags": [
      "nature",
      "food",
      "culture"
    ]
  },
  {
    "name": "Laad Bazaar",
    "city": "hyderabad",
    "state": "telangana",
    "lat": 17.3607,
    "lng": 78.4747,
    "category": "entertainment",
    "subcategory": "market",
    "rating": 4.1,
    "description": "A 200-year-old market near Charminar famous for lac bangles, pearls, and semi-precious stones. One of the oldest and most vibrant bazaars in India.",
    "avg_cost": 0,
    "visit_duration": 2.0,
    "best_time": "afternoon",
    "tags": [
      "shopping",
      "culture"
    ]
  },
  {
    "name": "Nehru Zoological Park",
    "city": "hyderabad",
    "state": "telangana",
    "lat": 17.3502,
    "lng": 78.4518,
    "category": "nature",
    "subcategory": "zoo",
    "rating": 4.2,
    "description": "One of the largest zoos in India spread over 380 acres. Houses white tigers, Indian rhinos, and a butterfly park. Features a toy train and safari rides.",
    "avg_cost": 50,
    "visit_duration": 3.0,
    "best_time": "morning",
    "tags": [
      "nature",
      "adventure"
    ]
  },
  {
    "name": "Mandore Gardens",
    "city": "jodhpur",
    "state": "rajasthan",
    "lat": 26.3239,
    "lng": 73.0052,
    "category": "park",
    "subcategory": "garden",
    "rating": 4.0,
    "description": "The ancient capital of Marwar featuring royal cenotaphs, gardens, and the Hall of Heroes with life-sized carvings of folk gods.",
    "avg_cost": 0,
    "visit_duration": 1.5,
    "best_time": "morning",
    "tags": [
      "history",
      "nature",
      "culture"
    ]
  },
  {
    "name": "Rao Jodha Desert Rock Park",
    "city": "jodhpur",
    "state": "rajasthan",
    "lat": 26.2992,
    "lng": 73.0184,
    "category": "nature",
    "subcategory": "park",
    "rating": 4.3,
    "description": "A 72-hectare ecopark at the base of Mehrangarh Fort showcasing the ecology of a rocky desert. Home to over 200 species of native plants.",
    "avg_cost": 100,
    "visit_duration": 2.0,
    "best_time": "morning",
    "tags": [
      "nature",
      "adventure",
      "photography"
    ]
  },
  {
    "name": "Fort Kochi Beach",
    "city": "kochi",
    "state": "kerala",
    "lat": 9.9671,
    "lng": 76.237,
    "category": "nature",
    "subcategory": "beach",
    "rating": 4.3,
    "description": "A charming beach promenade with Chinese fishing nets, colonial architecture, and stunning sunsets. The area has a European feel with art galleries and cafes.",
    "avg_cost": 0,
    "visit_duration": 2.0,
    "best_time": "evening",
    "tags": [
      "nature",
      "photography",
      "culture",
      "beaches"
    ]
  },
  {
    "name": "Kerala Folklore Museum",
    "city": "kochi",
    "state": "kerala",
    "lat": 9.9501,
    "lng": 76.2822,
    "category": "museum",
    "subcategory": "museum",
    "rating": 4.5,
    "description": "A unique private museum showcasing 4000 years of Kerala's folk heritage, including tribal costumes, temple carvings, and antique jewelry.",
    "avg_cost": 200,
    "visit_duration": 1.5,
    "best_time": "morning",
    "tags": [
      "culture",
      "art",
      "history"
    ]
  },
  {
    "name": "Mattancherry Spice Market",
    "city": "kochi",
    "state": "kerala",
    "lat": 9.9579,
    "lng": 76.254,
    "category": "entertainment",
    "subcategory": "market",
    "rating": 4.0,
    "description": "The historic center of India's spice trade. Walk through narrow lanes filled with the aroma of cardamom, cloves, pepper, and cinnamon.",
    "avg_cost": 0,
    "visit_duration": 1.5,
    "best_time": "morning",
    "tags": [
      "shopping",
      "culture",
      "food"
    ]
  },
  {
    "name": "Marble Palace",
    "city": "kolkata",
    "state": "west bengal",
    "lat": 22.5824,
    "lng": 88.3582,
    "category": "monument",
    "subcategory": "palace",
    "rating": 4.3,
    "description": "A pristine neoclassical mansion from 1835 housing original paintings by Rubens and Reynolds, Egyptian antiquities, and rare marble from 90 varieties.",
    "avg_cost": 0,
    "visit_duration": 1.5,
    "best_time": "morning",
    "tags": [
      "history",
      "art",
      "architecture",
      "culture"
    ]
  },
  {
    "name": "Peter Cat Restaurant",
    "city": "kolkata",
    "state": "west bengal",
    "lat": 22.5525,
    "lng": 88.351,
    "category": "restaurant",
    "subcategory": "restaurant",
    "rating": 4.5,
    "description": "An iconic Park Street restaurant since 1975, legendary for its Chelo Kebab. A must-visit for anyone exploring Kolkata's food scene.",
    "avg_cost": 800,
    "visit_duration": 1.0,
    "best_time": "afternoon",
    "tags": [
      "food",
      "culture"
    ]
  },
  {
    "name": "Great Himalayan National Park",
    "city": "kullu",
    "state": "himachal pradesh",
    "lat": 31.76,
    "lng": 77.45,
    "category": "nature",
    "subcategory": "national_park",
    "rating": 4.7,
    "description": "UNESCO World Heritage Site spanning 754 sq km of pristine alpine forests. Home to snow leopards, western tragopan, and over 375 plant species.",
    "avg_cost": 50,
    "visit_duration": 6.0,
    "best_time": "morning",
    "tags": [
      "nature",
      "adventure",
      "photography"
    ]
  },
  {
    "name": "Kullu Shawl Factory",
    "city": "kullu",
    "state": "himachal pradesh",
    "lat": 31.957,
    "lng": 77.1094,
    "category": "entertainment",
    "subcategory": "factory",
    "rating": 3.9,
    "description": "A handloom factory where you can watch traditional Kullu shawls being woven on wooden looms and buy directly from the weavers.",
    "avg_cost": 0,
    "visit_duration": 1.0,
    "best_time": "morning",
    "tags": [
      "shopping",
      "culture"
    ]
  },
  {
    "name": "Bijli Mahadev Temple",
    "city": "kullu",
    "state": "himachal pradesh",
    "lat": 31.982,
    "lng": 77.129,
    "category": "religious",
    "subcategory": "temple",
    "rating": 4.5,
    "description": "Perched at 2460m, this temple is struck by lightning regularly, shattering the Shiva lingam inside which is reassembled by the priest using butter.",
    "avg_cost": 0,
    "visit_duration": 3.0,
    "best_time": "morning",
    "tags": [
      "spiritual",
      "nature",
      "adventure",
      "photography"
    ]
  },
  {
    "name": "Raghunath Temple Kullu",
    "city": "kullu",
    "state": "himachal pradesh",
    "lat": 31.958,
    "lng": 77.112,
    "category": "religious",
    "subcategory": "temple",
    "rating": 4.1,
    "description": "The principal deity of the Kullu Valley, this temple is the starting point of the famous Dussehra celebrations that last for seven days.",
    "avg_cost": 0,
    "visit_duration": 1.0,
    "best_time": "morning",
    "tags": [
      "spiritual",
      "culture",
      "history"
    ]
  },
  {
    "name": "Thirumalai Nayakkar Palace",
    "city": "madurai",
    "state": "tamil nadu",
    "lat": 9.9176,
    "lng": 78.1197,
    "category": "monument",
    "subcategory": "palace",
    "rating": 4.2,
    "description": "A 17th-century Indo-Saracenic marvel with massive pillars, stucco work, and a sound-and-light show narrating the history of the Nayak dynasty.",
    "avg_cost": 50,
    "visit_duration": 1.5,
    "best_time": "afternoon",
    "tags": [
      "history",
      "architecture",
      "culture"
    ]
  },
  {
    "name": "Gandhi Memorial Museum Madurai",
    "city": "madurai",
    "state": "tamil nadu",
    "lat": 9.9191,
    "lng": 78.1176,
    "category": "museum",
    "subcategory": "museum",
    "rating": 4.3,
    "description": "A powerful museum housing the bloodstained dhoti worn by Mahatma Gandhi when he was assassinated, along with exhibits on India's freedom struggle.",
    "avg_cost": 0,
    "visit_duration": 1.5,
    "best_time": "morning",
    "tags": [
      "history",
      "culture"
    ]
  },
  {
    "name": "Banana Leaf Restaurant Madurai",
    "city": "madurai",
    "state": "tamil nadu",
    "lat": 9.92,
    "lng": 78.119,
    "category": "restaurant",
    "subcategory": "restaurant",
    "rating": 4.1,
    "description": "An authentic South Indian meals restaurant serving traditional Tamil cuisine on banana leaves. Famous for its thali, filterc coffee, and jigarthanda dessert.",
    "avg_cost": 200,
    "visit_duration": 1.0,
    "best_time": "afternoon",
    "tags": [
      "food",
      "culture"
    ]
  },
  {
    "name": "Jogini Waterfall",
    "city": "manali",
    "state": "himachal pradesh",
    "lat": 32.2448,
    "lng": 77.184,
    "category": "nature",
    "subcategory": "waterfall",
    "rating": 4.1,
    "description": "A 160-foot waterfall accessible via a scenic trek through pine forests from Vashisht village. The trek itself is an adventure through beautiful terrain.",
    "avg_cost": 0,
    "visit_duration": 3.0,
    "best_time": "morning",
    "tags": [
      "nature",
      "adventure",
      "photography"
    ]
  },
  {
    "name": "Dharavi Slum Tour",
    "city": "mumbai",
    "state": "maharashtra",
    "lat": 19.0434,
    "lng": 72.8523,
    "category": "entertainment",
    "subcategory": "tour",
    "rating": 4.4,
    "description": "A respectful guided walking tour through Asia's largest slum, showcasing its thriving leather, pottery, and recycling industries generating $500M+ annually.",
    "avg_cost": 600,
    "visit_duration": 2.5,
    "best_time": "morning",
    "tags": [
      "culture",
      "history"
    ]
  },
  {
    "name": "Top Station",
    "city": "munnar",
    "state": "kerala",
    "lat": 10.1269,
    "lng": 77.2379,
    "category": "nature",
    "subcategory": "viewpoint",
    "rating": 4.4,
    "description": "The highest point on the Munnar-Kodaikanal road at 1880m, offering panoramic views of the Tamil Nadu plains and the Western Ghats valley.",
    "avg_cost": 0,
    "visit_duration": 2.0,
    "best_time": "morning",
    "tags": [
      "nature",
      "photography",
      "adventure"
    ]
  },
  {
    "name": "Anamudi Peak Viewpoint",
    "city": "munnar",
    "state": "kerala",
    "lat": 10.155,
    "lng": 77.058,
    "category": "nature",
    "subcategory": "viewpoint",
    "rating": 4.3,
    "description": "Viewpoint for South India's highest peak at 2695m located in Eravikulam National Park. Home to the endangered Nilgiri Tahr.",
    "avg_cost": 125,
    "visit_duration": 3.0,
    "best_time": "morning",
    "tags": [
      "nature",
      "adventure",
      "photography"
    ]
  },
  {
    "name": "Tata Tea Museum",
    "city": "munnar",
    "state": "kerala",
    "lat": 10.0649,
    "lng": 77.0615,
    "category": "museum",
    "subcategory": "museum",
    "rating": 4.2,
    "description": "A museum tracing the history of tea cultivation in Munnar. Includes processing demonstrations, antique machinery, and tea tasting sessions.",
    "avg_cost": 100,
    "visit_duration": 1.5,
    "best_time": "morning",
    "tags": [
      "culture",
      "history",
      "food"
    ]
  },
  {
    "name": "Mysore Sand Sculpture Museum",
    "city": "mysore",
    "state": "karnataka",
    "lat": 12.3051,
    "lng": 76.6551,
    "category": "museum",
    "subcategory": "museum",
    "rating": 4.0,
    "description": "India's first ever sand sculpture museum featuring intricate sand art depicting mythology, wildlife, and famous personalities.",
    "avg_cost": 50,
    "visit_duration": 1.0,
    "best_time": "any",
    "tags": [
      "art",
      "culture"
    ]
  },
  {
    "name": "Tiffin Top (Dorothy's Seat)",
    "city": "nainital",
    "state": "uttarakhand",
    "lat": 29.3785,
    "lng": 79.4562,
    "category": "nature",
    "subcategory": "viewpoint",
    "rating": 4.2,
    "description": "A scenic viewpoint accessible via a 4km trek from Ayarpatta, offering 360-degree views of the Himalayas and Nainital Lake.",
    "avg_cost": 0,
    "visit_duration": 2.5,
    "best_time": "morning",
    "tags": [
      "nature",
      "adventure",
      "photography"
    ]
  },
  {
    "name": "Ooty Botanical Gardens",
    "city": "ooty",
    "state": "tamil nadu",
    "lat": 11.4168,
    "lng": 76.7142,
    "category": "park",
    "subcategory": "garden",
    "rating": 4.3,
    "description": "A stunning 55-acre garden established in 1848, featuring a 20-million-year-old fossilized tree trunk and over 650 species of plants, ferns, and orchids.",
    "avg_cost": 30,
    "visit_duration": 2.0,
    "best_time": "morning",
    "tags": [
      "nature",
      "photography"
    ]
  },
  {
    "name": "Pykara Lake and Falls",
    "city": "ooty",
    "state": "tamil nadu",
    "lat": 11.462,
    "lng": 76.6,
    "category": "nature",
    "subcategory": "waterfall",
    "rating": 4.1,
    "description": "A scenic lake surrounded by shola forests offering boating and a nearby waterfall. A peaceful retreat away from the tourist crowds of Ooty town.",
    "avg_cost": 50,
    "visit_duration": 2.0,
    "best_time": "morning",
    "tags": [
      "nature",
      "adventure",
      "photography"
    ]
  },